County	Population	Subnation	Nation	Total Area	Latitude	Longitude
Autauga__AL	54571	Alabama_US	United States	1565.358	32.536382	-86.64449
Baldwin__AL	182265	Alabama_US	United States	5250.712	30.659218	-87.746067
Barbour__AL	27457	Alabama_US	United States	2342.684	31.87067	-85.405456
Bibb__AL	22915	Alabama_US	United States	1621.77	33.015893	-87.127148
Blount__AL	57322	Alabama_US	United States	1685.119	33.977448	-86.567246
Bullock__AL	10914	Alabama_US	United States	1619.113	32.101759	-85.717261
Butler__AL	20947	Alabama_US	United States	2014.704	31.751667	-86.681969
Calhoun__AL	118572	Alabama_US	United States	1585.814	33.771706	-85.822513
Chambers__AL	34215	Alabama_US	United States	1562.057	32.917943	-85.391812
Cherokee__AL	25989	Alabama_US	United States	1553.935	34.069515	-85.654242
Chilton__AL	43643	Alabama_US	United States	1815.07	32.85406	-86.726628
Choctaw__AL	13859	Alabama_US	United States	2385.014	31.991008	-88.248887
Clarke__AL	25833	Alabama_US	United States	3244.152	31.685521	-87.818624
Clay__AL	13932	Alabama_US	United States	1569.537	33.267809	-85.862051
Cleburne__AL	14972	Alabama_US	United States	1453.018	33.671981	-85.516109
Coffee__AL	49948	Alabama_US	United States	1762.474	31.402183	-85.989201
Colbert__AL	54428	Alabama_US	United States	1611.308	34.703112	-87.801457
Conecuh__AL	13228	Alabama_US	United States	2208.54	31.428293	-86.992029
Coosa__AL	11539	Alabama_US	United States	1725.838	32.931445	-86.243482
Covington__AL	37765	Alabama_US	United States	2703.396	31.243987	-86.448721
Crenshaw__AL	13906	Alabama_US	United States	1582.264	31.732826	-86.319222
Cullman__AL	80406	Alabama_US	United States	1955.495	34.131923	-86.869267
Dale__AL	50251	Alabama_US	United States	1457.388	31.430654	-85.609476
Dallas__AL	43820	Alabama_US	United States	2573.942	32.33354	-87.114356
DeKalb__AL	71109	Alabama_US	United States	2016.786	34.460929	-85.803992
Elmore__AL	79303	Alabama_US	United States	1701.73	32.597229	-86.142739
Escambia__AL	38319	Alabama_US	United States	2468.62	31.121748	-87.168429
Etowah__AL	104430	Alabama_US	United States	1420.942	34.047638	-86.03442
Fayette__AL	17241	Alabama_US	United States	1630.024	33.732249	-87.752049
Franklin__AL	31704	Alabama_US	United States	1674.486	34.441988	-87.842815
Geneva__AL	26790	Alabama_US	United States	1499.476	31.090866	-85.824346
Greene__AL	9045	Alabama_US	United States	1709.238	32.844497	-87.964201
Hale__AL	15760	Alabama_US	United States	1700.33	32.752796	-87.623061
Henry__AL	17302	Alabama_US	United States	1471.913	31.516978	-85.239971
Houston__AL	101547	Alabama_US	United States	1506.478	31.158193	-85.296398
Jackson__AL	53227	Alabama_US	United States	2918.322	34.763522	-85.9774
Jefferson__AL	658466	Alabama_US	United States	2910.667	33.553444	-86.896536
Lamar__AL	14564	Alabama_US	United States	1568.145	33.787085	-88.087431
Lauderdale__AL	92709	Alabama_US	United States	1867.355	34.904122	-87.650997
Lawrence__AL	34339	Alabama_US	United States	1857.535	34.529776	-87.321865
Lee__AL	140247	Alabama_US	United States	1595.041	32.604064	-85.353048
Limestone__AL	82782	Alabama_US	United States	1572.61	34.810239	-86.9814
Lowndes__AL	11299	Alabama_US	United States	1877.923	32.147888	-86.650586
Macon__AL	21452	Alabama_US	United States	1588.199	32.387027	-85.692887
Madison__AL	334811	Alabama_US	United States	2104.888	34.764238	-86.55108
Marengo__AL	21027	Alabama_US	United States	2545.107	32.247591	-87.791091
Marion__AL	30776	Alabama_US	United States	1925.84	34.138219	-87.881551
Marshall__AL	93019	Alabama_US	United States	1614.026	34.309564	-86.321668
Mobile__AL	412992	Alabama_US	United States	4257.974	30.684573	-88.196568
Monroe__AL	23068	Alabama_US	United States	2679.128	31.580332	-87.383266
Montgomery__AL	229363	Alabama_US	United States	2071.762	32.203651	-86.203831
Morgan__AL	119490	Alabama_US	United States	1551.541	34.454484	-86.846402
Perry__AL	10591	Alabama_US	United States	1874.839	32.639005	-87.293827
Pickens__AL	19746	Alabama_US	United States	2305.415	33.296809	-88.096878
Pike__AL	32899	Alabama_US	United States	1743.078	31.798726	-85.941997
Randolph__AL	22913	Alabama_US	United States	1512.902	33.296475	-85.464068
Russell__AL	52947	Alabama_US	United States	1676.219	32.289811	-85.18698
St_Clair__AL	83593	Alabama_US	United States	1692.919	33.712963	-86.315663
Shelby__AL	195085	Alabama_US	United States	2096.661	33.262937	-86.678104
Sumter__AL	13763	Alabama_US	United States	2365.494	32.597481	-88.200057
Talladega__AL	82291	Alabama_US	United States	1969.184	33.369277	-86.175805
Tallapoosa__AL	41616	Alabama_US	United States	1984.589	32.863369	-85.799553
Tuscaloosa__AL	194656	Alabama_US	United States	3499.725	33.290202	-87.52286
Walker__AL	67023	Alabama_US	United States	2085.441	33.791571	-87.301092
Washington__AL	17581	Alabama_US	United States	2819.373	31.406974	-88.202078
Wilcox__AL	11670	Alabama_US	United States	2350.185	31.99033	-87.302205
Winston__AL	24484	Alabama_US	United States	1636.531	34.155888	-87.364147
Aleutians_East__AK	3141	Alaska_US	United States	38875.358	55.243722	-161.950749
Aleutians_West__AK	5561	Alaska_US	United States	36561.406	51.959447	178.338813
Anchorage__AK	291826	Alaska_US	United States	5078.97	61.177549	-149.274354
Bethel__AK	17013	Alaska_US	United States	117855.346	60.928916	-160.15335
Bristol_Bay__AK	997	Alaska_US	United States	2298.777	58.731373	-156.986612
Denali__AK	1826	Alaska_US	United States	33092.069	63.682732	-150.026719
Dillingham__AK	4847	Alaska_US	United States	54170.136	59.824816	-158.602233
Fairbanks_North_Star__AK	97581	Alaska_US	United States	19279.063	64.690832	-146.599867
Haines__AK	2508	Alaska_US	United States	7059.022	59.099905	-135.578102
Hoonah_Angoon__AK	2150	Alaska_US	United States	28267.524	58.076434	-135.1851
Juneau__AK	31275	Alaska_US	United States	8427.544	58.3727	-134.178781
Kenai_Peninsula__AK	55400	Alaska_US	United States	64108.206	60.366373	-152.321973
Ketchikan_Gateway__AK	13477	Alaska_US	United States	17232.647	55.449938	-131.106685
Kodiak_Island__AK	13592	Alaska_US	United States	31136.394	57.553611	-153.630911
Lake_and_Peninsula__AK	1631	Alaska_US	United States	85268.877	58.205065	-156.705188
MatanuskaSusitna__AK	88995	Alaska_US	United States	65416.898	62.182174	-149.407974
Nome__AK	9492	Alaska_US	United States	73238.698	64.783686	-164.188912
North_Slope__AK	9430	Alaska_US	United States	245521.234	69.449343	-153.47283
Northwest_Arctic__AK	7523	Alaska_US	United States	105539.253	67.005066	-160.021086
Petersburg__AK	3815	Alaska_US	United States	14721.662	56.639612	-133.527996
Prince_of_Wales_Hyder__AK	5559	Alaska_US	United States	19899.612	55.415683	-132.875734
Sitka__AK	8881	Alaska_US	United States	12461.548	57.142509	-135.332624
Skagway__AK	968	Alaska_US	United States	1201.847	59.575097	-135.335418
SE_Fairbanks__AK	7029	Alaska_US	United States	64903.711	63.864997	-143.218628
ValdezCordova__AK	9636	Alaska_US	United States	104480.567	61.34984	-145.023141
Wade_Hampton__AK	7459	Alaska_US	United States	50952.705	62.283174	-163.19095
Wrangell__AK	2369	Alaska_US	United States	8966.687	56.279121	-132.040326
Yakutat__AK	662	Alaska_US	United States	24508.712	59.999083	-140.239593
YukonKoyukuk__AK	5588	Alaska_US	United States	382812.22	65.376131	-151.576855
Apache__AZ	71518	Arizona_US	United States	29055.62	35.385845	-109.493747
Cochise__AZ	131346	Arizona_US	United States	16106.089	31.881793	-109.75412
Coconino__AZ	134421	Arizona_US	United States	48332.653	35.829692	-111.773728
Gila__AZ	53597	Arizona_US	United States	12420.101	33.789618	-110.81187
Graham__AZ	37220	Arizona_US	United States	12020.305	32.931828	-109.87831
Greenlee__AZ	8437	Arizona_US	United States	4787.419	33.238872	-109.242323
La_Paz__AZ	20489	Arizona_US	United States	11690.566	33.727625	-114.038793
Maricopa__AZ	3817117	Arizona_US	United States	23891.056	33.346541	-112.495534
Mohave__AZ	200186	Arizona_US	United States	34862.918	35.717705	-113.749689
Navajo__AZ	107449	Arizona_US	United States	25795.551	35.390934	-110.320908
Pima__AZ	980263	Arizona_US	United States	23799.649	32.128237	-111.783018
Pinal__AZ	375770	Arizona_US	United States	13919.201	32.91891	-111.367257
Santa_Cruz__AZ	47420	Arizona_US	United States	3206.687	31.525904	-110.84519
Yavapai__AZ	211033	Arizona_US	United States	21051.267	34.630044	-112.573745
Yuma__AZ	195751	Arizona_US	United States	14294.428	32.773942	-113.910905
Arkansas__AR	19019	Arkansas_US	United States	2677.398	34.289574	-91.376547
Ashley__AR	21853	Arkansas_US	United States	2435.953	33.190835	-91.772267
Baxter__AR	41513	Arkansas_US	United States	1519.585	36.28071	-92.330438
Benton__AR	221339	Arkansas_US	United States	2289.307	36.337825	-94.256187
Boone__AR	36903	Arkansas_US	United States	1558.737	36.304308	-93.079204
Bradley__AR	11508	Arkansas_US	United States	1691.047	33.463819	-92.168164
Calhoun__AR	5368	Arkansas_US	United States	1637.943	33.56046	-92.513879
Carroll__AR	27446	Arkansas_US	United States	1654.484	36.337774	-93.541663
Chicot__AR	11800	Arkansas_US	United States	1789.132	33.267139	-91.297158
Clark__AR	22995	Arkansas_US	United States	2286.518	34.053312	-93.176205
Clay__AR	16083	Arkansas_US	United States	1661.312	36.367302	-90.418704
Cleburne__AR	25970	Arkansas_US	United States	1533.071	35.566288	-92.059974
Cleveland__AR	8689	Arkansas_US	United States	1550.752	33.893201	-92.188714
Columbia__AR	24552	Arkansas_US	United States	1985.88	33.21507	-93.226901
Conway__AR	21273	Arkansas_US	United States	1467.662	35.265702	-92.689248
Craighead__AR	96443	Arkansas_US	United States	1845.818	35.828268	-90.630411
Crawford__AR	61948	Arkansas_US	United States	1564.981	35.583041	-94.236224
Crittenden__AR	50902	Arkansas_US	United States	1648.211	35.211878	-90.315331
Cross__AR	17870	Arkansas_US	United States	1611.767	35.291259	-90.773894
Dallas__AR	8116	Arkansas_US	United States	1730.387	33.967823	-92.653999
Desha__AR	13008	Arkansas_US	United States	2122.563	33.828748	-91.244427
Drew__AR	18509	Arkansas_US	United States	2164.352	33.587242	-91.722778
Faulkner__AR	113237	Arkansas_US	United States	1719.94	35.146356	-92.324654
Franklin__AR	18125	Arkansas_US	United States	1604.866	35.508573	-93.887672
Fulton__AR	12245	Arkansas_US	United States	1606.642	36.383443	-91.819239
Garland__AR	96024	Arkansas_US	United States	1902.659	34.578861	-93.146915
Grant__AR	17853	Arkansas_US	United States	1639.281	34.288063	-92.423984
Greene__AR	42090	Arkansas_US	United States	1501.06	36.119922	-90.565241
Hempstead__AR	22609	Arkansas_US	United States	1919.64	33.728611	-93.665809
Hot_Spring__AR	32923	Arkansas_US	United States	1611.42	34.315177	-92.944147
Howard__AR	13789	Arkansas_US	United States	1541.856	34.083179	-93.990988
Independence__AR	36647	Arkansas_US	United States	1998.223	35.737499	-91.559942
Izard__AR	13696	Arkansas_US	United States	1512.599	36.094879	-91.913625
Jackson__AR	17997	Arkansas_US	United States	1661.481	35.596605	-91.223178
Jefferson__AR	77435	Arkansas_US	United States	2366.668	34.277696	-91.930701
Johnson__AR	25540	Arkansas_US	United States	1768.299	35.573359	-93.466322
Lafayette__AR	7645	Arkansas_US	United States	1411.748	33.24066	-93.611643
Lawrence__AR	17415	Arkansas_US	United States	1534.158	36.041098	-91.101153
Lee__AR	10424	Arkansas_US	United States	1604.503	34.77975	-90.779288
Lincoln__AR	14134	Arkansas_US	United States	1481.952	33.957665	-91.727624
Little_River__AR	13171	Arkansas_US	United States	1462.737	33.699497	-94.229774
Logan__AR	22353	Arkansas_US	United States	1894.731	35.21855	-93.720563
Lonoke__AR	68356	Arkansas_US	United States	2079.347	34.755114	-91.894132
Madison__AR	15717	Arkansas_US	United States	2168.028	36.012545	-93.724053
Marion__AR	16653	Arkansas_US	United States	1658.42	36.266656	-92.678588
Miller__AR	43462	Arkansas_US	United States	1651.504	33.305505	-93.901509
Mississippi__AR	46480	Arkansas_US	United States	2382.302	35.766943	-90.052209
Monroe__AR	8149	Arkansas_US	United States	1609.154	34.679513	-91.203314
Montgomery__AR	9487	Arkansas_US	United States	2072.74	34.545652	-93.664147
Nevada__AR	8997	Arkansas_US	United States	1607.447	33.666699	-93.305072
Newton__AR	8330	Arkansas_US	United States	2132.042	35.910063	-93.215084
Ouachita__AR	26120	Arkansas_US	United States	1915.95	33.591158	-92.878418
Perry__AR	10445	Arkansas_US	United States	1451.775	34.946363	-92.926877
Phillips__AR	21757	Arkansas_US	United States	1883.814	34.425842	-90.848386
Pike__AR	11291	Arkansas_US	United States	1590.588	34.158191	-93.658659
Poinsett__AR	24583	Arkansas_US	United States	1977.74	35.568981	-90.680595
Polk__AR	20662	Arkansas_US	United States	2233.765	34.490915	-94.230884
Pope__AR	61754	Arkansas_US	United States	2151.697	35.455297	-93.031535
Prairie__AR	8715	Arkansas_US	United States	1749.833	34.828225	-91.5572
Pulaski__AR	382748	Arkansas_US	United States	2091.839	34.773988	-92.316515
Randolph__AR	17969	Arkansas_US	United States	1699.134	36.341299	-91.028441
St_Francis__AR	28258	Arkansas_US	United States	1664.099	35.014438	-90.742199
Saline__AR	107118	Arkansas_US	United States	1891.96	34.648525	-92.674463
Scott__AR	11233	Arkansas_US	United States	2325.999	34.858869	-94.063641
Searcy__AR	8195	Arkansas_US	United States	1731.434	35.90966	-92.699351
Sebastian__AR	125744	Arkansas_US	United States	1414.549	35.196981	-94.274989
Sevier__AR	17058	Arkansas_US	United States	1505.501	33.994608	-94.24329
Sharp__AR	17264	Arkansas_US	United States	1570.662	36.173399	-91.471069
Stone__AR	12394	Arkansas_US	United States	1578.42	35.856989	-92.140494
Union__AR	41639	Arkansas_US	United States	2732.954	33.168219	-92.598145
Van_Buren__AR	17295	Arkansas_US	United States	1875.888	35.582959	-92.515977
Washington__AR	203065	Arkansas_US	United States	2466.729	35.971209	-94.218417
White__AR	77076	Arkansas_US	United States	2699.144	35.254722	-91.753158
Woodruff__AR	7260	Arkansas_US	United States	1538.489	35.189071	-91.244418
Yell__AR	22185	Arkansas_US	United States	2457.528	34.997713	-93.408303
Alameda__CA	1510271	California_US	United States	2127.231	37.648081	-121.913304
Alpine__CA	1175	California_US	United States	1924.829	38.61761	-119.798999
Amador__CA	38091	California_US	United States	1569.42	38.44355	-120.653856
Butte__CA	220000	California_US	United States	4343.749	39.665959	-121.601919
Calaveras__CA	45578	California_US	United States	2685.63	38.187844	-120.555115
Colusa__CA	21419	California_US	United States	2994.96	39.177739	-122.237563
Contra_Costa__CA	1049025	California_US	United States	2081.754	37.919479	-121.951543
Del_Norte__CA	28610	California_US	United States	3185.02	41.749903	-123.980998
El_Dorado__CA	181058	California_US	United States	4626.64	38.785532	-120.534398
Fresno__CA	930450	California_US	United States	15568.942	36.761006	-119.655019
Glenn__CA	28122	California_US	United States	3436.857	39.602546	-122.4017
Humboldt__CA	134623	California_US	United States	10495.301	40.706673	-123.925818
Imperial__CA	174528	California_US	United States	11607.6	33.040816	-115.355395
Inyo__CA	18546	California_US	United States	26487.562	36.561977	-117.403927
Kern__CA	839631	California_US	United States	21141.142	35.346629	-118.729506
Kings__CA	152982	California_US	United States	3604.051	36.072478	-119.81553
Lake__CA	64665	California_US	United States	3443.19	39.094802	-122.746757
Lassen__CA	34895	California_US	United States	12225.053	40.721089	-120.629931
Los_Angeles__CA	9818605	California_US	United States	12304.883	34.196398	-118.261862
Madera__CA	150865	California_US	United States	5576.94	37.210039	-119.749852
Marin__CA	252409	California_US	United States	2145.006	38.051817	-122.745974
Mariposa__CA	18251	California_US	United States	3788.688	37.570034	-119.91286
Mendocino__CA	87841	California_US	United States	10044.339	39.432388	-123.442881
Merced__CA	255793	California_US	United States	5124.315	37.194806	-120.722802
Modoc__CA	9686	California_US	United States	10886.752	41.592919	-120.71837
Mono__CA	14202	California_US	United States	8111.523	37.915836	-118.875167
Monterey__CA	415057	California_US	United States	9767.417	36.240107	-121.315573
Napa__CA	136484	California_US	United States	2042.417	38.507351	-122.325995
Nevada__CA	98764	California_US	United States	2522.132	39.295191	-120.773446
Orange__CA	3010232	California_US	United States	2455.478	33.675687	-117.777207
Placer__CA	348432	California_US	United States	3891.341	39.062032	-120.722718
Plumas__CA	20007	California_US	United States	6768.746	39.99517	-120.829516
Riverside__CA	2189641	California_US	United States	18915.77	33.729828	-116.002239
Sacramento__CA	1418788	California_US	United States	2574.493	38.450011	-121.340441
San_Benito__CA	55269	California_US	United States	3601.297	36.610702	-121.085296
San_Bernardino__CA	2035210	California_US	United States	52071.258	34.85722	-116.181197
San_Diego__CA	3095313	California_US	United States	11721.469	33.023604	-116.776117
San_Franciso__CA	805235	California_US	United States	600.59	37.727239	-123.032229
San_Joaquin__CA	685306	California_US	United States	3694.615	37.935034	-121.272237
San_Luis_Obispo__CA	269637	California_US	United States	9364.223	35.385227	-120.44754
San_Mateo__CA	718451	California_US	United States	1919.076	37.414664	-122.371542
Santa_Barbara__CA	423895	California_US	United States	9813.667	34.537378	-120.038485
Santa_Clara__CA	1781642	California_US	United States	3377.518	37.220777	-121.690622
Santa_Cruz__CA	262382	California_US	United States	1572.555	37.012488	-122.007205
Shasta__CA	177223	California_US	United States	9964.778	40.760522	-122.04355
Sierra__CA	3240	California_US	United States	2492.113	39.576925	-120.521993
Siskiyou__CA	44900	California_US	United States	16439.542	41.587986	-122.533287
Solano__CA	413344	California_US	United States	2347.027	38.267226	-121.939594
Sonoma__CA	483878	California_US	United States	4578.96	38.532574	-122.945194
Stanislaus__CA	514453	California_US	United States	3923.02	37.562384	-121.002656
Sutter__CA	94737	California_US	United States	1575.983	39.035257	-121.702758
Tehama__CA	63463	California_US	United States	7671.986	40.126156	-122.232276
Trinity__CA	13786	California_US	United States	8307.638	40.647724	-123.114404
Tulare__CA	442179	California_US	United States	12532.05	36.230453	-118.780542
Tuolumne__CA	55365	California_US	United States	5890.746	38.021451	-119.964708
Ventura__CA	823318	California_US	United States	5719.684	34.358742	-119.133143
Yolo__CA	200849	California_US	United States	2651.002	38.679268	-121.903178
Yuba__CA	72155	California_US	United States	1667.453	39.270026	-121.34428
Adams__CO	441603	Colorado_US	United States	3066.278	39.874325	-104.331872
Alamosa__CO	15445	Colorado_US	United States	1873.445	37.568442	-105.788041
Arapahoe__CO	572003	Colorado_US	United States	2086.074	39.644632	-104.331733
Archuleta__CO	12084	Colorado_US	United States	3510.765	37.202395	-107.050863
Baca__CO	3788	Colorado_US	United States	6623.476	37.303144	-102.535457
Bent__CO	6499	Colorado_US	United States	3991.386	37.931891	-103.077584
Boulder__CO	294567	Colorado_US	United States	1917.549	40.094826	-105.398382
Broomfield__CO	55889	Colorado_US	United States	87.024	39.953383	-105.052125
Chaffee__CO	17809	Colorado_US	United States	2628.716	38.738246	-106.316972
Cheyenne__CO	1836	Colorado_US	United States	4613.879	38.835387	-102.604585
Clear_Creek__CO	9088	Colorado_US	United States	1026.913	39.689403	-105.670791
Conejos__CO	8256	Colorado_US	United States	3343.561	37.213407	-106.176447
Costilla__CO	3524	Colorado_US	United States	3186.619	37.277547	-105.42894
Crowley__CO	5823	Colorado_US	United States	2072.842	38.321956	-103.787562
Custer__CO	4255	Colorado_US	United States	1916.396	38.101994	-105.373515
Delta__CO	30952	Colorado_US	United States	2974.858	38.861756	-107.864757
Denver__CO	600158	Colorado_US	United States	400.494	39.761849	-104.880625
Dolores__CO	2064	Colorado_US	United States	2766.366	37.747602	-108.530383
Douglas__CO	285465	Colorado_US	United States	2183.022	39.326435	-104.926199
Eagle__CO	52197	Colorado_US	United States	4381.718	39.630638	-106.692944
Elbert__CO	23086	Colorado_US	United States	4794.113	39.310817	-104.117928
El_Paso__CO	622263	Colorado_US	United States	5515.501	38.827383	-104.527472
Fremont__CO	46824	Colorado_US	United States	3972.863	38.455658	-105.421438
Garfield__CO	56389	Colorado_US	United States	7655.584	39.599352	-107.90978
Gilpin__CO	5441	Colorado_US	United States	389.171	39.861082	-105.528947
Grand__CO	14843	Colorado_US	United States	4842.222	40.123289	-106.095876
Gunnison__CO	15324	Colorado_US	United States	8442.401	38.669679	-107.078108
Hinsdale__CO	843	Colorado_US	United States	2908.992	37.811625	-107.383405
Huerfano__CO	6711	Colorado_US	United States	4126.465	37.687815	-104.959928
Jackson__CO	1394	Colorado_US	United States	4198.273	40.663432	-106.329248
Jefferson__CO	534543	Colorado_US	United States	2004.736	39.58646	-105.245601
Kiowa__CO	1398	Colorado_US	United States	4625.529	38.388466	-102.75621
Kit_Carson__CO	8270	Colorado_US	United States	5598.754	39.30534	-102.603023
Lake__CO	7310	Colorado_US	United States	994.319	39.204316	-106.349696
La_Plata__CO	51334	Colorado_US	United States	4402.223	37.287367	-107.839718
Larimer__CO	299630	Colorado_US	United States	6821.909	40.663091	-105.482131
Las_Animas__CO	15507	Colorado_US	United States	12368.092	37.318831	-104.04411
Lincoln__CO	5467	Colorado_US	United States	6698.802	38.99374	-103.507555
Logan__CO	22709	Colorado_US	United States	4778.177	40.728091	-103.090464
Mesa__CO	146723	Colorado_US	United States	8653.47	39.019492	-108.461837
Mineral__CO	712	Colorado_US	United States	2273.188	37.651478	-106.9323
Moffat__CO	13795	Colorado_US	United States	12304.807	40.573984	-108.204521
Montezuma__CO	25535	Colorado_US	United States	5283.968	37.338025	-108.595786
Montrose__CO	41276	Colorado_US	United States	5808.296	38.413427	-108.263042
Morgan__CO	28159	Colorado_US	United States	3350.779	40.262354	-103.807092
Otero__CO	18831	Colorado_US	United States	3288.518	37.88417	-103.72126
Ouray__CO	4436	Colorado_US	United States	1404.318	38.1506	-107.767133
Park__CO	16206	Colorado_US	United States	5725.565	39.118914	-105.717648
Phillips__CO	4442	Colorado_US	United States	1782.027	40.594712	-102.345105
Pitkin__CO	17148	Colorado_US	United States	2520.564	39.217533	-106.915943
Prowers__CO	12551	Colorado_US	United States	4258.775	37.958181	-102.392161
Pueblo__CO	159063	Colorado_US	United States	6210.261	38.170658	-104.489893
Rio_Blanco__CO	6666	Colorado_US	United States	8347.047	39.972606	-108.200685
Rio_Grande__CO	11982	Colorado_US	United States	2362.944	37.485763	-106.453214
Routt__CO	23509	Colorado_US	United States	6133.445	40.48316	-106.985289
Saguache__CO	6108	Colorado_US	United States	8210.895	38.033952	-106.246675
San_Juan__CO	699	Colorado_US	United States	1005.624	37.781075	-107.670257
San_Miguel__CO	7359	Colorado_US	United States	3337.522	38.009374	-108.427326
Sedgwick__CO	2379	Colorado_US	United States	1422.95	40.871568	-102.355358
Summit__CO	27994	Colorado_US	United States	1603.922	39.621023	-106.137555
Teller__CO	23350	Colorado_US	United States	1447.712	38.871994	-105.182552
Washington__CO	4814	Colorado_US	United States	6536.878	39.965413	-103.209605
Weld__CO	252825	Colorado_US	United States	10403.453	40.555794	-104.383649
Yuma__CO	10043	Colorado_US	United States	6134.915	40.000631	-102.422649
Fairfield__CT	916829	Connecticut_US	United States	2167.619	41.228103	-73.366757
Hartford__CT	894014	Connecticut_US	United States	1944.105	41.806053	-72.732916
Litchfield__CT	189927	Connecticut_US	United States	2446.405	41.791897	-73.235428
Middlesex__CT	165676	Connecticut_US	United States	1137.17	41.434525	-72.524227
New_Haven__CT	862477	Connecticut_US	United States	2232.716	41.349717	-72.900204
New_London__CT	274055	Connecticut_US	United States	1998.692	41.47863	-72.103452
Tolland__CT	152691	Connecticut_US	United States	1080.147	41.858076	-72.340977
Windham__CT	118428	Connecticut_US	United States	1350.523	41.824999	-71.990702
Kent__DE	162310	Delaware_US	United States	2067.667	39.097088	-75.502982
New_Castle__DE	538479	Delaware_US	United States	1279.461	39.575915	-75.644132
Sussex__DE	197145	Delaware_US	United States	3098.638	38.677511	-75.335495
Washington__DC	601723	District_of_Columbia_US	United States	177	38.904149	-77.017094
Alachua__FL	247336	Florida_US	United States	2509.202	29.67574	-82.357221
Baker__FL	27115	Florida_US	United States	1525.427	30.324442	-82.302284
Bay__FL	168852	Florida_US	United States	2675.854	30.237563	-85.631348
Bradford__FL	28520	Florida_US	United States	778.262	29.946934	-82.166796
Brevard__FL	543376	Florida_US	United States	4032.599	28.298276	-80.700384
Broward__FL	1748066	Florida_US	United States	3426.198	26.19352	-80.476658
Calhoun__FL	14625	Florida_US	United States	1487.464	30.388801	-85.197916
Charlotte__FL	159978	Florida_US	United States	2222.989	26.868826	-81.940858
Citrus__FL	141236	Florida_US	United States	2002.823	28.843628	-82.524796
Clay__FL	190865	Florida_US	United States	1666.782	29.987116	-81.858147
Collier__FL	321520	Florida_US	United States	5969.962	26.118713	-81.400884
Columbia__FL	67531	Florida_US	United States	2075.43	30.221305	-82.623127
DeSoto__FL	34862	Florida_US	United States	1656.25	27.190581	-81.806253
Dixie__FL	16422	Florida_US	United States	2236.843	29.580899	-83.195666
Duval__FL	864263	Florida_US	United States	2378.781	30.335245	-81.648113
Escambia__FL	297619	Florida_US	United States	2265.474	30.611664	-87.33904
Flagler__FL	95696	Florida_US	United States	1478.429	29.474894	-81.286362
Franklin__FL	11549	Florida_US	United States	2658.607	29.810176	-84.799174
Gadsden__FL	46389	Florida_US	United States	1368.881	30.57917	-84.612783
Gilchrist__FL	16939	Florida_US	United States	920.064	29.723456	-82.795801
Glades__FL	12884	Florida_US	United States	2555.925	26.95481	-81.19082
Gulf__FL	15863	Florida_US	United States	1956.894	29.907257	-85.256537
Hamilton__FL	14799	Florida_US	United States	1344.349	30.491102	-82.951049
Hardee__FL	27731	Florida_US	United States	1653.289	27.492846	-81.82158
Hendry__FL	39140	Florida_US	United States	3082.075	26.53934	-81.151584
Hernando__FL	172778	Florida_US	United States	1525.558	28.567911	-82.464835
Highlands__FL	98786	Florida_US	United States	2864.616	27.342627	-81.340921
Hillsborough__FL	1229226	Florida_US	United States	3278.314	27.90659	-82.349568
Holmes__FL	19927	Florida_US	United States	1266.626	30.866222	-85.812959
Indian_River__FL	138028	Florida_US	United States	1598.038	27.700638	-80.574803
Jackson__FL	49746	Florida_US	United States	2472.31	30.787812	-85.210374
Jefferson__FL	14761	Florida_US	United States	1648.618	30.424558	-83.890859
Lafayette__FL	8870	Florida_US	United States	1419.075	29.990066	-83.17851
Lake__FL	297052	Florida_US	United States	2996.523	28.764113	-81.712282
Lee__FL	618754	Florida_US	United States	3140.26	26.552134	-81.89225
Leon__FL	275487	Florida_US	United States	1817.626	30.45931	-84.2778
Levy__FL	40801	Florida_US	United States	3659.121	29.284409	-82.783483
Liberty__FL	8365	Florida_US	United States	2183.678	30.259849	-84.868581
Madison__FL	19224	Florida_US	United States	1853.612	30.447228	-83.470437
Manatee__FL	322833	Florida_US	United States	2312.027	27.481386	-82.365784
Marion__FL	331298	Florida_US	United States	4306.141	29.202805	-82.0431
Martin__FL	146318	Florida_US	United States	1949.817	27.079954	-80.398211
MiamiDade__FL	2496435	Florida_US	United States	6296.734	25.610494	-80.499045
Monroe__FL	73090	Florida_US	United States	9680.143	25.601043	-81.206777
Nassau__FL	73314	Florida_US	United States	1880.126	30.605926	-81.764929
Okaloosa__FL	180822	Florida_US	United States	2802.57	30.665858	-86.594194
Okeechobee__FL	39996	Florida_US	United States	2310.028	27.385592	-80.887388
Orange__FL	1145956	Florida_US	United States	2598.431	28.514435	-81.323295
Osceola__FL	268685	Florida_US	United States	3900.278	28.059027	-81.139312
Palm_Beach__FL	1320134	Florida_US	United States	6171.965	26.645763	-80.448673
Pasco__FL	464697	Florida_US	United States	2249.285	28.302024	-82.455707
Pinellas__FL	916542	Florida_US	United States	1575.042	27.903122	-82.739518
Polk__FL	602095	Florida_US	United States	5207.302	27.953115	-81.692783
Putnam__FL	74364	Florida_US	United States	2141.717	29.606006	-81.740894
St_Johns__FL	190039	Florida_US	United States	2127.74	29.890593	-81.383914
St_Lucie__FL	277789	Florida_US	United States	1782.188	27.380775	-80.443364
Santa_Rosa__FL	151372	Florida_US	United States	3040.069	30.703633	-87.014255
Sarasota__FL	379448	Florida_US	United States	1878.632	27.184386	-82.365835
Seminole__FL	422718	Florida_US	United States	894.308	28.690079	-81.13198
Sumter__FL	93420	Florida_US	United States	1501.741	28.714294	-82.074715
Suwannee__FL	41551	Florida_US	United States	1792.935	30.189244	-82.992754
Taylor__FL	22570	Florida_US	United States	3191.386	30.016943	-83.616417
Union__FL	15535	Florida_US	United States	646.856	30.05428	-82.366918
Volusia__FL	494593	Florida_US	United States	3709.99	29.057617	-81.161813
Wakulla__FL	30776	Florida_US	United States	1905.521	30.140378	-84.375136
Walton__FL	55043	Florida_US	United States	3210.536	30.631211	-86.176614
Washington__FL	24896	Florida_US	United States	1595.314	30.602217	-85.662797
Appling__GA	18236	Georgia_US	United States	1326.751	31.739712	-82.290103
Atkinson__GA	8375	Georgia_US	United States	892.338	31.300562	-82.883614
Bacon__GA	11096	Georgia_US	United States	740.277	31.563327	-82.387859
Baker__GA	3451	Georgia_US	United States	904.264	31.319622	-84.454857
Baldwin__GA	45720	Georgia_US	United States	692.591	33.059532	-83.255362
Banks__GA	18395	Georgia_US	United States	605.763	34.351922	-83.498441
Barrow__GA	69367	Georgia_US	United States	422.016	33.992009	-83.712303
Bartow__GA	100157	Georgia_US	United States	1217.588	34.240918	-84.838188
Ben_Hill__GA	17634	Georgia_US	United States	657.616	31.740776	-83.14719
Berrien__GA	19286	Georgia_US	United States	1185.911	31.274308	-83.231906
Bibb__GA	155547	Georgia_US	United States	661.394	32.808844	-83.694193
Bleckley__GA	13063	Georgia_US	United States	567.548	32.435403	-83.331717
Brantley__GA	18411	Georgia_US	United States	1158.249	31.197334	-81.982978
Brooks__GA	16243	Georgia_US	United States	1289.297	30.833696	-83.588971
Bryan__GA	30233	Georgia_US	United States	1177.035	32.017969	-81.438543
Bulloch__GA	70217	Georgia_US	United States	1783.532	32.393408	-81.74381
Burke__GA	23316	Georgia_US	United States	2162.595	33.063737	-82.00389
Butts__GA	23655	Georgia_US	United States	487.024	33.290355	-83.958221
Calhoun__GA	6694	Georgia_US	United States	734.463	31.521279	-84.62629
Camden__GA	50513	Georgia_US	United States	2025.021	30.916358	-81.636516
Candler__GA	10998	Georgia_US	United States	644.539	32.403986	-82.071446
Carroll__GA	110527	Georgia_US	United States	1304.928	33.582237	-85.080527
Catoosa__GA	63942	Georgia_US	United States	420.771	34.899393	-85.137353
Charlton__GA	12171	Georgia_US	United States	2026.34	30.779904	-82.139644
Chatham__GA	265128	Georgia_US	United States	1637.551	31.974756	-81.091768
Chattahoochee__GA	11267	Georgia_US	United States	650.516	32.347445	-84.788021
Chattooga__GA	26015	Georgia_US	United States	812.113	34.474179	-85.345289
Cherokee__GA	214346	Georgia_US	United States	1125.104	34.244317	-84.475057
Clarke__GA	116714	Georgia_US	United States	313.48	33.952234	-83.36713
Clay__GA	3183	Georgia_US	United States	562.635	31.619831	-84.992583
Clayton__GA	259424	Georgia_US	United States	373.817	33.552242	-84.412977
Clinch__GA	6798	Georgia_US	United States	2134.132	30.917653	-82.702614
Cobb__GA	688078	Georgia_US	United States	892.297	33.93994	-84.574166
Coffee__GA	42356	Georgia_US	United States	1560.857	31.549245	-82.844938
Colquitt__GA	45498	Georgia_US	United States	1441.689	31.189758	-83.769741
Columbia__GA	124053	Georgia_US	United States	796.692	33.550556	-82.251342
Cook__GA	17212	Georgia_US	United States	603.993	31.152935	-83.429552
Coweta__GA	127317	Georgia_US	United States	1154.66	33.352897	-84.762138
Crawford__GA	12630	Georgia_US	United States	845.511	32.709446	-83.979182
Crisp__GA	23439	Georgia_US	United States	727.66	31.914753	-83.753338
Dade__GA	16633	Georgia_US	United States	451.073	34.852424	-85.506201
Dawson__GA	22330	Georgia_US	United States	555.315	34.442842	-84.173284
Decatur__GA	27842	Georgia_US	United States	1613.997	30.877961	-84.577744
DeKalb__GA	691893	Georgia_US	United States	702.254	33.770661	-84.226343
Dodge__GA	21796	Georgia_US	United States	1303.058	32.160656	-83.156818
Dooly__GA	14918	Georgia_US	United States	1028.961	32.151995	-83.807167
Dougherty__GA	94565	Georgia_US	United States	866.694	31.535068	-84.214444
Douglas__GA	132403	Georgia_US	United States	520.655	33.699317	-84.765944
Early__GA	11008	Georgia_US	United States	1337.329	31.324191	-84.906723
Echols__GA	4034	Georgia_US	United States	1089.659	30.7085	-82.836132
Effingham__GA	52250	Georgia_US	United States	1250.784	32.361711	-81.343337
Elbert__GA	20166	Georgia_US	United States	969.216	34.115017	-82.842057
Emanuel__GA	22598	Georgia_US	United States	1787.562	32.5911	-82.299763
Evans__GA	11000	Georgia_US	United States	483.99	32.151902	-81.887618
Fannin__GA	23682	Georgia_US	United States	1015.172	34.863837	-84.319287
Fayette__GA	106567	Georgia_US	United States	516.241	33.412717	-84.493941
Floyd__GA	96317	Georgia_US	United States	1342.818	34.263677	-85.21373
Forsyth__GA	175511	Georgia_US	United States	640.157	34.225143	-84.127336
Franklin__GA	22084	Georgia_US	United States	690.105	34.375155	-83.227291
Fulton__GA	920581	Georgia_US	United States	1383.895	33.790034	-84.468182
Gilmer__GA	28292	Georgia_US	United States	1116.923	34.690541	-84.453984
Glascock__GA	3082	Georgia_US	United States	374.132	33.227491	-82.606913
Glynn__GA	79626	Georgia_US	United States	1515.785	31.212747	-81.496517
Gordon__GA	55186	Georgia_US	United States	927.327	34.509667	-84.873862
Grady__GA	25011	Georgia_US	United States	1192.078	30.875863	-84.244772
Greene__GA	15994	Georgia_US	United States	1052.081	33.576836	-83.167103
Gwinnett__GA	805321	Georgia_US	United States	1131.243	33.959101	-84.022938
Habersham__GA	43041	Georgia_US	United States	722.672	34.635108	-83.526406
Hall__GA	179684	Georgia_US	United States	1111.868	34.317588	-83.818497
Hancock__GA	9429	Georgia_US	United States	1239.776	33.26922	-83.000465
Haralson__GA	28780	Georgia_US	United States	733.42	33.795165	-85.220062
Harris__GA	32024	Georgia_US	United States	1224.95	32.731549	-84.912432
Hart__GA	25213	Georgia_US	United States	665.492	34.348733	-82.96329
Heard__GA	11834	Georgia_US	United States	779.831	33.290968	-85.139594
Henry__GA	203922	Georgia_US	United States	845.752	33.452881	-84.15444
Houston__GA	139900	Georgia_US	United States	983.991	32.458381	-83.662856
Irwin__GA	9538	Georgia_US	United States	939.551	31.604306	-83.277037
Jackson__GA	60485	Georgia_US	United States	888.623	34.134157	-83.565133
Jasper__GA	13900	Georgia_US	United States	967.269	33.314905	-83.687892
Jeff_Davis__GA	15068	Georgia_US	United States	868.677	31.811615	-82.636825
Jefferson__GA	16930	Georgia_US	United States	1371.831	33.051874	-82.41905
Jenkins__GA	8340	Georgia_US	United States	912.901	32.794563	-81.971524
Johnson__GA	9980	Georgia_US	United States	794.072	32.689831	-82.661354
Jones__GA	28669	Georgia_US	United States	1024.124	33.020226	-83.562339
Lamar__GA	18317	Georgia_US	United States	481.309	33.07446	-84.146721
Lanier__GA	10078	Georgia_US	United States	517.45	31.038197	-83.063164
Laurens__GA	48434	Georgia_US	United States	2119.828	32.39322	-82.926317
Lee__GA	28298	Georgia_US	United States	936.884	31.818419	-84.146681
Liberty__GA	63453	Georgia_US	United States	1560.539	31.807245	-81.457969
Lincoln__GA	7996	Georgia_US	United States	666.398	33.792151	-82.448299
Long__GA	14464	Georgia_US	United States	1045.872	31.749563	-81.74287
Lowndes__GA	109233	Georgia_US	United States	1322.384	30.83368	-83.268967
Lumpkin__GA	29966	Georgia_US	United States	736.066	34.568149	-83.998828
McDuffie__GA	21875	Georgia_US	United States	689.941	33.482464	-82.473188
McIntosh__GA	14333	Georgia_US	United States	1486.377	31.482978	-81.370199
Macon__GA	14740	Georgia_US	United States	1051.513	32.366216	-84.052162
Madison__GA	28120	Georgia_US	United States	739.669	34.128486	-83.203637
Marion__GA	8742	Georgia_US	United States	951.77	32.359538	-84.529561
Meriwether__GA	21992	Georgia_US	United States	1308.996	33.03022	-84.663279
Miller__GA	6125	Georgia_US	United States	734.683	31.162908	-84.730386
Mitchell__GA	23498	Georgia_US	United States	1330.797	31.22894	-84.192407
Monroe__GA	26424	Georgia_US	United States	1030.326	33.017435	-83.922938
Montgomery__GA	9123	Georgia_US	United States	633.752	32.172108	-82.533349
Morgan__GA	17868	Georgia_US	United States	918.463	33.593732	-83.492324
Murray__GA	39628	Georgia_US	United States	897.852	34.797097	-84.73799
Muscogee__GA	189885	Georgia_US	United States	572.404	32.510197	-84.874946
Newton__GA	99958	Georgia_US	United States	723.119	33.544046	-83.855189
Oconee__GA	32808	Georgia_US	United States	482.701	33.834125	-83.437728
Oglethorpe__GA	14899	Georgia_US	United States	1144.874	33.866806	-83.074081
Paulding__GA	142324	Georgia_US	United States	814.141	33.920903	-84.866979
Peach__GA	27695	Georgia_US	United States	391.867	32.571324	-83.831978
Pickens__GA	29431	Georgia_US	United States	602.722	34.456621	-84.490256
Pierce__GA	18758	Georgia_US	United States	888.961	31.353988	-82.210427
Pike__GA	17869	Georgia_US	United States	568.256	33.090769	-84.386627
Polk__GA	41475	Georgia_US	United States	808.441	33.995961	-85.186826
Pulaski__GA	12010	Georgia_US	United States	650.622	32.238794	-83.481855
Putnam__GA	21218	Georgia_US	United States	934.174	33.321061	-83.37179
Quitman__GA	2513	Georgia_US	United States	415.861	31.861487	-85.009317
Rabun__GA	16276	Georgia_US	United States	976.122	34.883026	-83.404735
Randolph__GA	7719	Georgia_US	United States	1115.957	31.762651	-84.752311
Richmond__GA	200549	Georgia_US	United States	851.047	33.361487	-82.074998
Rockdale__GA	85215	Georgia_US	United States	342.132	33.652081	-84.02637
Schley__GA	5010	Georgia_US	United States	434.66	32.263441	-84.322724
Screven__GA	14593	Georgia_US	United States	1698.693	32.744751	-81.617585
Seminole__GA	8729	Georgia_US	United States	664.477	30.933894	-84.867592
Spalding__GA	64073	Georgia_US	United States	516.937	33.262389	-84.286067
Stephens__GA	26175	Georgia_US	United States	477.07	34.552914	-83.290216
Stewart__GA	6058	Georgia_US	United States	1200.751	32.073225	-84.834912
Sumter__GA	32819	Georgia_US	United States	1275.968	32.042203	-84.204283
Talbot__GA	6865	Georgia_US	United States	1022.429	32.704603	-84.530029
Taliaferro__GA	1717	Georgia_US	United States	505.947	33.559314	-82.875208
Tattnall__GA	25520	Georgia_US	United States	1264.818	32.043768	-82.059208
Taylor__GA	8906	Georgia_US	United States	983.416	32.554667	-84.251426
Telfair__GA	16500	Georgia_US	United States	1149.978	31.913639	-82.931062
Terrell__GA	9315	Georgia_US	United States	874.647	31.777191	-84.439446
Thomas__GA	44720	Georgia_US	United States	1430.238	30.864616	-83.919783
Tift__GA	40118	Georgia_US	United States	696.161	31.457003	-83.525931
Toombs__GA	27223	Georgia_US	United States	960.867	32.126698	-82.332071
Towns__GA	10471	Georgia_US	United States	445.433	34.90265	-83.732158
Treutlen__GA	6885	Georgia_US	United States	524.342	32.409586	-82.570882
Troup__GA	67044	Georgia_US	United States	1155.036	33.034482	-85.02836
Turner__GA	8930	Georgia_US	United States	751.046	31.718232	-83.628567
Twiggs__GA	9023	Georgia_US	United States	939.218	32.665847	-83.425879
Union__GA	21356	Georgia_US	United States	852.118	34.83377	-83.989573
Upson__GA	27153	Georgia_US	United States	848.36	32.881837	-84.292281
Walker__GA	68756	Georgia_US	United States	1157.79	34.735827	-85.305385
Walton__GA	83768	Georgia_US	United States	854.696	33.782649	-83.734215
Ware__GA	36312	Georgia_US	United States	2351.678	31.050881	-82.421507
Warren__GA	5834	Georgia_US	United States	742.518	33.419169	-82.688012
Washington__GA	21187	Georgia_US	United States	1772.473	32.971848	-82.798112
Wayne__GA	30099	Georgia_US	United States	1680.374	31.547845	-81.912376
Webster__GA	2799	Georgia_US	United States	544.58	32.046554	-84.553218
Wheeler__GA	7421	Georgia_US	United States	777.691	32.109276	-82.738701
White__GA	27144	Georgia_US	United States	627.315	34.643677	-83.743713
Whitfield__GA	102599	Georgia_US	United States	753.827	34.801726	-84.968541
Wilcox__GA	9255	Georgia_US	United States	989.694	31.962717	-83.438262
Wilkes__GA	10593	Georgia_US	United States	1227.899	33.77904	-82.747922
Wilkinson__GA	9563	Georgia_US	United States	1170.545	32.804321	-83.175587
Worth__GA	21679	Georgia_US	United States	1488.61	31.551773	-83.84996
Hawaii__HI	185079	Hawaii_US	United States	13173.021	19.597764	-155.502443
Honolulu__HI	953207	Hawaii_US	United States	5511.678	21.461364	-158.201976
Kalawao__HI	90	Hawaii_US	United States	136.827	21.218764	-156.97401
Kauai__HI	67091	Hawaii_US	United States	3279.855	22.012038	-159.705965
Maui__HI	154834	Hawaii_US	United States	6211.643	20.855931	-156.60155
Ada__ID	392365	Idaho_US	United States	2746.583	43.447861	-116.244456
Adams__ID	3976	Idaho_US	United States	3547.691	44.884583	-116.431873
Bannock__ID	82839	Idaho_US	United States	2971.836	42.692939	-112.228986
Bear_Lake__ID	5986	Idaho_US	United States	2717.955	42.285833	-111.327445
Benewah__ID	9285	Idaho_US	United States	2030.418	47.218451	-116.633541
Bingham__ID	45607	Idaho_US	United States	5491.826	43.216357	-112.399206
Blaine__ID	21376	Idaho_US	United States	6891.197	43.394482	-113.95529
Boise__ID	7028	Idaho_US	United States	4938.294	43.987275	-115.715111
Bonner__ID	40877	Idaho_US	United States	4971.479	48.312512	-116.59694
Bonneville__ID	104234	Idaho_US	United States	4922.624	43.395171	-111.621878
Boundary__ID	10972	Idaho_US	United States	3309.637	48.773065	-116.524619
Butte__ID	2891	Idaho_US	United States	5785.248	43.6851	-113.177627
Camas__ID	1117	Idaho_US	United States	2794.461	43.463396	-114.804427
Canyon__ID	188923	Idaho_US	United States	1563.182	43.623051	-116.708527
Caribou__ID	6963	Idaho_US	United States	4658.287	42.786273	-111.544172
Cassia__ID	22952	Idaho_US	United States	6682.9	42.288635	-113.605498
Clark__ID	982	Idaho_US	United States	4571.696	44.286251	-112.36112
Clearwater__ID	8761	Idaho_US	United States	6443.854	46.67257	-115.6535
Custer__ID	4368	Idaho_US	United States	12787.563	44.273341	-114.252251
Elmore__ID	27038	Idaho_US	United States	8030.918	43.394826	-115.470751
Franklin__ID	12786	Idaho_US	United States	1731.001	42.173589	-111.822955
Fremont__ID	13242	Idaho_US	United States	4909.8	44.218091	-111.484429
Gem__ID	16719	Idaho_US	United States	1465.17	44.061473	-116.398784
Gooding__ID	15464	Idaho_US	United States	1900.321	42.973185	-114.82142
Idaho__ID	16267	Idaho_US	United States	22023.576	45.849237	-115.467376
Jefferson__ID	26140	Idaho_US	United States	2863.422	43.796965	-112.318588
Jerome__ID	22374	Idaho_US	United States	1559.565	42.691172	-114.263009
Kootenai__ID	138494	Idaho_US	United States	3407.448	47.677113	-116.694918
Latah__ID	37244	Idaho_US	United States	2789.189	46.81892	-116.730974
Lemhi__ID	7936	Idaho_US	United States	11833.013	44.928789	-113.887841
Lewis__ID	3821	Idaho_US	United States	1242.518	46.236328	-116.42376
Lincoln__ID	5208	Idaho_US	United States	3123.234	42.986181	-114.153899
Madison__ID	37536	Idaho_US	United States	1225.65	43.789709	-111.65655
Minidoka__ID	20069	Idaho_US	United States	1975.973	42.856937	-113.64001
Nez_Perce__ID	39265	Idaho_US	United States	2217.76	46.333766	-116.760903
Oneida__ID	4286	Idaho_US	United States	3112.139	42.18389	-112.520465
Owyhee__ID	11526	Idaho_US	United States	19935.091	42.593063	-116.142655
Payette__ID	22623	Idaho_US	United States	1062.608	44.00274	-116.748655
Power__ID	7817	Idaho_US	United States	3736.487	42.694126	-112.844407
Shoshone__ID	12765	Idaho_US	United States	6824.937	47.347694	-115.885092
Teton__ID	10170	Idaho_US	United States	1166.944	43.760994	-111.211765
Twin_Falls__ID	77230	Idaho_US	United States	4994.335	42.352309	-114.665639
Valley__ID	9862	Idaho_US	United States	9668.324	44.771532	-115.637875
Washington__ID	10198	Idaho_US	United States	3816.418	44.448213	-116.79783
Adams__IL	67103	Illinois_US	United States	2256.757	39.986053	-91.194961
Alexander__IL	8238	Illinois_US	United States	654.234	37.183683	-89.349506
Bond__IL	17768	Illinois_US	United States	991.345	38.885924	-89.436592
Boone__IL	54165	Illinois_US	United States	730.441	42.318983	-88.824295
Brown__IL	6937	Illinois_US	United States	795.658	39.962069	-90.75031
Bureau__IL	34978	Illinois_US	United States	2262.364	41.401304	-89.528377
Calhoun__IL	5089	Illinois_US	United States	734.46	39.164262	-90.666295
Carroll__IL	15387	Illinois_US	United States	1207.867	42.059084	-89.926485
Cass__IL	13642	Illinois_US	United States	993.947	39.969202	-90.245705
Champaign__IL	201081	Illinois_US	United States	2585.825	40.13915	-88.197201
Christian__IL	34800	Illinois_US	United States	1853.5	39.545524	-89.279593
Clark__IL	16335	Illinois_US	United States	1307.473	39.332364	-87.791687
Clay__IL	13815	Illinois_US	United States	1216.237	38.747312	-88.483789
Clinton__IL	37762	Illinois_US	United States	1303.467	38.606423	-89.423136
Coles__IL	53873	Illinois_US	United States	1321.091	39.51368	-88.220782
Cook__IL	5194675	Illinois_US	United States	4234.266	41.894294	-87.645455
Crawford__IL	19817	Illinois_US	United States	1154.665	39.00373	-87.757172
Cumberland__IL	11048	Illinois_US	United States	898.734	39.273121	-88.240619
DeKalb__IL	105160	Illinois_US	United States	1643.762	41.894613	-88.768991
De_Witt__IL	16561	Illinois_US	United States	1049.163	40.181499	-88.901853
Douglas__IL	19980	Illinois_US	United States	1080.605	39.766078	-88.222866
DuPage__IL	916924	Illinois_US	United States	871.302	41.852058	-88.086038
Edgar__IL	18576	Illinois_US	United States	1616.143	39.679037	-87.74711
Edwards__IL	6721	Illinois_US	United States	576.843	38.417095	-88.047941
Effingham__IL	34242	Illinois_US	United States	1243.211	39.047694	-88.592786
Fayette__IL	22140	Illinois_US	United States	1878.63	39.001125	-89.017923
Ford__IL	14081	Illinois_US	United States	1259.36	40.594423	-88.224746
Franklin__IL	39561	Illinois_US	United States	1117.435	37.991848	-88.926246
Fulton__IL	37069	Illinois_US	United States	2285.855	40.465688	-90.206793
Gallatin__IL	5589	Illinois_US	United States	849.989	37.768677	-88.227964
Greene__IL	13886	Illinois_US	United States	1414.839	39.355444	-90.387757
Grundy__IL	50063	Illinois_US	United States	1114.853	41.29241	-88.401055
Hamilton__IL	8457	Illinois_US	United States	1128.952	38.085226	-88.539005
Hancock__IL	19104	Illinois_US	United States	2109.276	40.405792	-91.167988
Hardin__IL	4320	Illinois_US	United States	470.286	37.517852	-88.266148
Henderson__IL	7331	Illinois_US	United States	1023.614	40.815141	-90.93848
Henry__IL	50486	Illinois_US	United States	2138.406	41.350021	-90.130838
Iroquois__IL	29718	Illinois_US	United States	2898.008	40.748867	-87.833601
Jackson__IL	60218	Illinois_US	United States	1560.155	37.786096	-89.381212
Jasper__IL	9698	Illinois_US	United States	1290.123	39.004874	-88.150763
Jefferson__IL	38827	Illinois_US	United States	1511.994	38.30078	-88.92421
Jersey__IL	22985	Illinois_US	United States	976.757	39.080192	-90.361365
Jo_Daviess__IL	22678	Illinois_US	United States	1602.499	42.362391	-90.211471
Johnson__IL	12582	Illinois_US	United States	903.552	37.460815	-88.882962
Kane__IL	515269	Illinois_US	United States	1357.674	41.939594	-88.42804
Kankakee__IL	113449	Illinois_US	United States	1764.723	41.139494	-87.861125
Kendall__IL	114736	Illinois_US	United States	834.805	41.58814	-88.430626
Knox__IL	52919	Illinois_US	United States	1864.303	40.930941	-90.213761
Lake__IL	703462	Illinois_US	United States	3544.344	42.326444	-87.436118
La_Salle__IL	113924	Illinois_US	United States	2973.658	41.343341	-88.885931
Lawrence__IL	16833	Illinois_US	United States	969.015	38.718954	-87.730221
Lee__IL	36031	Illinois_US	United States	1887.979	41.747442	-89.299351
Livingston__IL	38950	Illinois_US	United States	2708.939	40.894376	-88.552852
Logan__IL	30305	Illinois_US	United States	1603.012	40.12907	-89.365308
Donough__IL	32612	Illinois_US	United States	1528.571	40.455789	-90.677579
McHenry__IL	308760	Illinois_US	United States	1581.998	42.324298	-88.452245
McLean__IL	169572	Illinois_US	United States	3072.424	40.494559	-88.844539
Macon__IL	110768	Illinois_US	United States	1517.383	39.860237	-88.961529
Macoupin__IL	47765	Illinois_US	United States	2247.205	39.2659	-89.926344
Madison__IL	269282	Illinois_US	United States	1918.045	38.827082	-89.900195
Marion__IL	39437	Illinois_US	United States	1491.926	38.648396	-88.920221
Marshall__IL	12640	Illinois_US	United States	1032.147	41.031119	-89.342371
Mason__IL	14666	Illinois_US	United States	1459.364	40.236993	-89.913575
Massac__IL	15429	Illinois_US	United States	626.295	37.216119	-88.705658
Menard__IL	12705	Illinois_US	United States	817.03	40.022569	-89.794133
Mercer__IL	16434	Illinois_US	United States	1472.91	41.204791	-90.741433
Monroe__IL	32957	Illinois_US	United States	1030.908	38.277983	-90.179078
Montgomery__IL	30104	Illinois_US	United States	1838.053	39.228092	-89.478007
Morgan__IL	35547	Illinois_US	United States	1482.241	39.716806	-90.202277
Moultrie__IL	14846	Illinois_US	United States	892.191	39.636896	-88.625726
Ogle__IL	53497	Illinois_US	United States	1976.123	42.041884	-89.320176
Peoria__IL	186494	Illinois_US	United States	1633.244	40.785999	-89.767358
Perry__IL	22350	Illinois_US	United States	1157.602	38.084385	-89.368487
Piatt__IL	16729	Illinois_US	United States	1138.202	40.009056	-88.592328
Pike__IL	16430	Illinois_US	United States	2198.602	39.625106	-90.889034
Pope__IL	4470	Illinois_US	United States	969.439	37.417169	-88.542374
Pulaski__IL	6161	Illinois_US	United States	526.361	37.215615	-89.127755
Putnam__IL	6006	Illinois_US	United States	446.057	41.19894	-89.298386
Randolph__IL	33476	Illinois_US	United States	1546.753	38.056515	-89.82121
Richland__IL	16233	Illinois_US	United States	937.308	38.71155	-88.085698
Rock_Island__IL	147546	Illinois_US	United States	1168.831	41.468404	-90.572203
St_Clair__IL	270056	Illinois_US	United States	1745.738	38.470198	-89.928546
Saline__IL	24913	Illinois_US	United States	1001.755	37.751653	-88.545031
Sangamon__IL	197465	Illinois_US	United States	2271.47	39.756378	-89.662311
Schuyler__IL	7544	Illinois_US	United States	1143.043	40.156905	-90.613464
Scott__IL	5355	Illinois_US	United States	654.674	39.63698	-90.477759
Shelby__IL	22363	Illinois_US	United States	1989.291	39.384926	-88.798862
Stark__IL	5994	Illinois_US	United States	746.83	41.096908	-89.797411
Stephenson__IL	47711	Illinois_US	United States	1463.494	42.349726	-89.665994
Tazewell__IL	135394	Illinois_US	United States	1704.047	40.508074	-89.51626
Union__IL	17808	Illinois_US	United States	1093.358	37.475104	-89.252875
Vermilion__IL	81625	Illinois_US	United States	2334.298	40.18674	-87.726772
Wabash__IL	11947	Illinois_US	United States	589.237	38.445821	-87.839167
Warren__IL	17707	Illinois_US	United States	1406.498	40.850441	-90.620223
Washington__IL	14716	Illinois_US	United States	1460.51	38.353141	-89.417187
Wayne__IL	16760	Illinois_US	United States	1853.101	38.431948	-88.432129
White__IL	14665	Illinois_US	United States	1299.814	38.087372	-88.178585
Whiteside__IL	58498	Illinois_US	United States	1803.995	41.750571	-89.910957
Will__IL	677560	Illinois_US	United States	2199.485	41.448474	-87.978456
Williamson__IL	66357	Illinois_US	United States	1150.866	37.730353	-88.930018
Winnebago__IL	295266	Illinois_US	United States	1344.852	42.337396	-89.161205
Woodford__IL	38664	Illinois_US	United States	1405.436	40.789596	-89.210301
Adams__IN	34387	Indiana_US	United States	880.51	40.745733	-84.936131
Allen__IN	355329	Indiana_US	United States	1709.449	41.091855	-85.07223
Bartholomew__IN	76794	Indiana_US	United States	1060.665	39.205843	-85.897999
Benton__IN	8854	Indiana_US	United States	1052.853	40.608253	-87.315479
Blackford__IN	12766	Indiana_US	United States	428.858	40.472672	-85.32373
Boone__IN	56640	Indiana_US	United States	1096.217	40.050892	-86.469014
Brown__IN	15242	Indiana_US	United States	820.07	39.192585	-86.23941
Carroll__IN	20155	Indiana_US	United States	971.294	40.58498	-86.565141
Cass__IN	38966	Indiana_US	United States	1074.45	40.753799	-86.355169
Clark__IN	110232	Indiana_US	United States	975.004	38.476217	-85.711122
Clay__IN	26890	Indiana_US	United States	933.228	39.393951	-87.115837
Clinton__IN	33224	Indiana_US	United States	1049.588	40.305944	-86.477567
Crawford__IN	10713	Indiana_US	United States	799.577	38.289433	-86.440871
Daviess__IN	31648	Indiana_US	United States	1131.499	38.696155	-87.076988
Dearborn__IN	50047	Indiana_US	United States	796.202	39.151491	-84.97346
Decatur__IN	25740	Indiana_US	United States	966.902	39.30598	-85.499831
DeKalb__IN	42223	Indiana_US	United States	942.368	41.401189	-85.000185
Delaware__IN	117671	Indiana_US	United States	1025.4	40.227165	-85.398856
Dubois__IN	41889	Indiana_US	United States	1127.509	38.373344	-86.873385
Elkhart__IN	197559	Indiana_US	United States	1212.038	41.600693	-85.863986
Fayette__IN	24277	Indiana_US	United States	557.268	39.639655	-85.185032
Floyd__IN	74578	Indiana_US	United States	385.798	38.317937	-85.911474
Fountain__IN	17240	Indiana_US	United States	1030.503	40.121282	-87.234806
Franklin__IN	23087	Indiana_US	United States	1012.814	39.409762	-85.066964
Fulton__IN	20836	Indiana_US	United States	961.573	41.050384	-86.265006
Gibson__IN	33503	Indiana_US	United States	1292.83	38.317413	-87.580566
Grant__IN	70061	Indiana_US	United States	1074.58	40.515758	-85.654946
Greene__IN	33165	Indiana_US	United States	1413.92	39.0486	-87.005245
Hamilton__IN	274569	Indiana_US	United States	1042.307	40.04987	-86.020586
Hancock__IN	70002	Indiana_US	United States	795.191	39.822604	-85.772904
Harrison__IN	39364	Indiana_US	United States	1260.083	38.18644	-86.103681
Hendricks__IN	145448	Indiana_US	United States	1058.729	39.768749	-86.510287
Henry__IN	49462	Indiana_US	United States	1022.61	39.929576	-85.397338
Howard__IN	82752	Indiana_US	United States	761.253	40.483537	-86.114118
Huntington__IN	37124	Indiana_US	United States	1004.196	40.826394	-85.478598
Jackson__IN	42376	Indiana_US	United States	1331.03	38.911957	-86.042516
Jasper__IN	33478	Indiana_US	United States	1453.982	41.017688	-87.118814
Jay__IN	21253	Indiana_US	United States	994.769	40.434972	-85.00338
Jefferson__IN	32428	Indiana_US	United States	939.877	38.783604	-85.44009
Jennings__IN	28525	Indiana_US	United States	979.91	38.996234	-85.628111
Johnson__IN	139654	Indiana_US	United States	833.432	39.495986	-86.0946
Knox__IN	38440	Indiana_US	United States	1357.269	38.688663	-87.420182
Kosciusko__IN	77358	Indiana_US	United States	1435.871	41.244293	-85.861575
LaGrange__IN	37128	Indiana_US	United States	1001.555	41.642468	-85.426302
Lake__IN	496005	Indiana_US	United States	1622.784	41.472239	-87.374337
LaPorte__IN	111467	Indiana_US	United States	1588.335	41.549011	-86.744729
Lawrence__IN	46134	Indiana_US	United States	1170.491	38.839815	-86.48782
Madison__IN	131636	Indiana_US	United States	1173.017	40.166203	-85.722454
Marion__IN	903393	Indiana_US	United States	1043.786	39.782976	-86.135794
Marshall__IN	47051	Indiana_US	United States	1164.829	41.325003	-86.269036
Martin__IN	10334	Indiana_US	United States	881.648	38.705322	-86.801847
Miami__IN	36903	Indiana_US	United States	977.431	40.772881	-86.044259
Monroe__IN	137974	Indiana_US	United States	1065.316	39.160751	-86.523325
Montgomery__IN	38124	Indiana_US	United States	1309.097	40.040296	-86.892715
Morgan__IN	68894	Indiana_US	United States	1060.411	39.482646	-86.447457
Newton__IN	14244	Indiana_US	United States	1044.9	40.962399	-87.402172
Noble__IN	47536	Indiana_US	United States	1081.146	41.400794	-85.41785
Ohio__IN	6128	Indiana_US	United States	226.454	38.940527	-84.964299
Orange__IN	19840	Indiana_US	United States	1057.212	38.547381	-86.489257
Owen__IN	21575	Indiana_US	United States	1004.463	39.317339	-86.838845
Parke__IN	17339	Indiana_US	United States	1165.441	39.77425	-87.19695
Perry__IN	19338	Indiana_US	United States	1000.486	38.081436	-86.62654
Pike__IN	12845	Indiana_US	United States	883.43	38.397898	-87.232532
Porter__IN	164343	Indiana_US	United States	1351.406	41.509922	-87.071308
Posey__IN	25910	Indiana_US	United States	1086.047	38.027614	-87.868653
Pulaski__IN	13402	Indiana_US	United States	1125.438	41.045272	-86.692538
Putnam__IN	37963	Indiana_US	United States	1250.167	39.665545	-86.853325
Randolph__IN	26171	Indiana_US	United States	1174.077	40.164414	-85.005004
Ripley__IN	28818	Indiana_US	United States	1160.474	39.10023	-85.260541
Rush__IN	17392	Indiana_US	United States	1057.908	39.622312	-85.466527
St_Joseph__IN	266931	Indiana_US	United States	1194.983	41.617699	-86.288159
Scott__IN	24181	Indiana_US	United States	499.216	38.679431	-85.751898
Shelby__IN	44436	Indiana_US	United States	1069.034	39.524135	-85.792174
Spencer__IN	20952	Indiana_US	United States	1039.689	38.009789	-87.010645
Starke__IN	23363	Indiana_US	United States	808.609	41.28322	-86.64757
Steuben__IN	34185	Indiana_US	United States	835.183	41.643437	-85.002467
Sullivan__IN	21475	Indiana_US	United States	1176.155	39.089225	-87.415843
Switzerland__IN	10613	Indiana_US	United States	578.704	38.825846	-85.029679
Tippecanoe__IN	172780	Indiana_US	United States	1303.394	40.38926	-86.893943
Tipton__IN	15936	Indiana_US	United States	674.866	40.310229	-86.056207
Union__IN	7516	Indiana_US	United States	427.807	39.623111	-84.925152
Vanderburgh__IN	179703	Indiana_US	United States	612.091	38.02007	-87.586166
Vermillion__IN	16212	Indiana_US	United States	673.217	39.854045	-87.462071
Vigo__IN	107848	Indiana_US	United States	1063.062	39.429143	-87.390375
Wabash__IN	32888	Indiana_US	United States	1090.322	40.843717	-85.795175
Warren__IN	8508	Indiana_US	United States	948.987	40.352658	-87.375847
Warrick__IN	59689	Indiana_US	United States	1012.823	38.097764	-87.272023
Washington__IN	28262	Indiana_US	United States	1337.987	38.600613	-86.104751
Wayne__IN	68917	Indiana_US	United States	1047.239	39.863091	-85.006735
Wells__IN	27636	Indiana_US	United States	958.938	40.735273	-85.212974
White__IN	24643	Indiana_US	United States	1317.473	40.75095	-86.864293
Whitley__IN	33292	Indiana_US	United States	875.194	41.136426	-85.501892
Adair__IA	7682	Iowa_US	United States	1477.002	41.328528	-94.478164
Adams__IA	4029	Iowa_US	United States	1102.054	41.021656	-94.696906
Allamakee__IA	14330	Iowa_US	United States	1706.21	43.274964	-91.382751
Appanoose__IA	12887	Iowa_US	United States	1337.065	40.744683	-92.870345
Audubon__IA	6119	Iowa_US	United States	1148.417	41.679178	-94.904312
Benton__IA	26076	Iowa_US	United States	1860.878	42.092547	-92.05763
Black_Hawk__IA	131090	Iowa_US	United States	1483.234	42.472888	-92.306059
Boone__IA	26306	Iowa_US	United States	1485.722	42.038601	-93.939138
Bremer__IA	24276	Iowa_US	United States	1138.052	42.78089	-92.327586
Buchanan__IA	20958	Iowa_US	United States	1484.363	42.470328	-91.838666
Buena_Vista__IA	20260	Iowa_US	United States	1502.781	42.741522	-95.141433
Butler__IA	14867	Iowa_US	United States	1506.743	42.734708	-92.780066
Calhoun__IA	9670	Iowa_US	United States	1481.77	42.38617	-94.643683
Carroll__IA	20816	Iowa_US	United States	1476.98	42.039492	-94.867647
Cass__IA	13956	Iowa_US	United States	1463.21	41.333824	-94.933302
Cedar__IA	18499	Iowa_US	United States	1507.117	41.772355	-91.13219
Cerro_Gordo__IA	44151	Iowa_US	United States	1489.55	43.075171	-93.251266
Cherokee__IA	12072	Iowa_US	United States	1494.604	42.742738	-95.633262
Chickasaw__IA	12439	Iowa_US	United States	1309.648	43.059741	-92.31721
Clarke__IA	9286	Iowa_US	United States	1118.241	41.029191	-93.784096
Clay__IA	16667	Iowa_US	United States	1483.006	43.079822	-95.149726
Clayton__IA	18129	Iowa_US	United States	2052.992	42.840998	-91.323511
Clinton__IA	49116	Iowa_US	United States	1839.345	41.898073	-90.534243
Crawford__IA	17096	Iowa_US	United States	1851.937	42.043119	-95.38909
Dallas__IA	66135	Iowa_US	United States	1532.492	41.685321	-94.040707
Davis__IA	8753	Iowa_US	United States	1307.566	40.748089	-92.410345
Decatur__IA	8457	Iowa_US	United States	1381.708	40.736379	-93.78458
Delaware__IA	17764	Iowa_US	United States	1499.464	42.473003	-91.359443
Des_Moines__IA	40325	Iowa_US	United States	1113.049	40.915339	-91.186925
Dickinson__IA	16667	Iowa_US	United States	1046.255	43.389611	-95.196057
Dubuque__IA	93653	Iowa_US	United States	1597.071	42.463481	-90.878771
Emmet__IA	10302	Iowa_US	United States	1042.53	43.377984	-94.66937
Fayette__IA	20880	Iowa_US	United States	1894.125	42.86445	-91.839373
Floyd__IA	16303	Iowa_US	United States	1298.574	43.052741	-92.787367
Franklin__IA	10680	Iowa_US	United States	1508.73	42.736549	-93.271425
Fremont__IA	7441	Iowa_US	United States	1338.087	40.743726	-95.599516
Greene__IA	9336	Iowa_US	United States	1479.439	42.042494	-94.388703
Grundy__IA	12453	Iowa_US	United States	1299.9	42.403323	-92.790261
Guthrie__IA	10954	Iowa_US	United States	1536.055	41.683573	-94.501272
Hamilton__IA	15673	Iowa_US	United States	1495.743	42.390768	-93.709198
Hancock__IA	11341	Iowa_US	United States	1484.161	43.075411	-93.743697
Hardin__IA	17534	Iowa_US	United States	1476.273	42.389955	-93.241081
Harrison__IA	14928	Iowa_US	United States	1817.246	41.688584	-95.827149
Henry__IA	20145	Iowa_US	United States	1130.685	40.985864	-91.54427
Howard__IA	9566	Iowa_US	United States	1226.634	43.365313	-92.321908
Humboldt__IA	9815	Iowa_US	United States	1128.373	42.782221	-94.202775
Ida__IA	7089	Iowa_US	United States	1119.006	42.39186	-95.507421
Iowa__IA	16355	Iowa_US	United States	1521.603	41.683918	-92.059123
Jackson__IA	19848	Iowa_US	United States	1682.474	42.164281	-90.574597
Jasper__IA	36842	Iowa_US	United States	1898.345	41.685686	-93.052971
Jefferson__IA	16843	Iowa_US	United States	1131.503	41.00688	-91.967137
Johnson__IA	130882	Iowa_US	United States	1613.951	41.668737	-91.588812
Jones__IA	20638	Iowa_US	United States	1494.434	42.125118	-91.116914
Keokuk__IA	10511	Iowa_US	United States	1501.997	41.331182	-92.167721
Kossuth__IA	15543	Iowa_US	United States	2523.488	43.212478	-94.213983
Lee__IA	35862	Iowa_US	United States	1395.66	40.647588	-91.477157
Linn__IA	211226	Iowa_US	United States	1876.459	42.077951	-91.597674
Louisa__IA	11387	Iowa_US	United States	1081.368	41.218211	-91.256994
Lucas__IA	8898	Iowa_US	United States	1125.084	41.033344	-93.331467
Lyon__IA	11581	Iowa_US	United States	1522.342	43.38358	-96.207201
Madison__IA	15679	Iowa_US	United States	1455.983	41.330622	-94.015184
Mahaska__IA	22381	Iowa_US	United States	1485.092	41.330797	-92.636366
Marion__IA	33309	Iowa_US	United States	1477.612	41.331455	-93.093849
Marshall__IA	40648	Iowa_US	United States	1484.574	42.041691	-92.981452
Mills__IA	15059	Iowa_US	United States	1141.263	41.033703	-95.619101
Mitchcell__IA	10776	Iowa_US	United States	1216.167	43.348564	-92.784466
Monona__IA	9243	Iowa_US	United States	1810.23	42.049432	-95.956566
Monroe__IA	7970	Iowa_US	United States	1124.84	41.028847	-92.869642
Montgomery__IA	10740	Iowa_US	United States	1100.816	41.021735	-95.15779
Muscatine__IA	42745	Iowa_US	United States	1163.239	41.483776	-91.118699
O_Brien__IA	14398	Iowa_US	United States	1484.602	43.083746	-95.625624
Osceola__IA	6462	Iowa_US	United States	1034.423	43.378542	-95.633788
Page__IA	15932	Iowa_US	United States	1386.854	40.73909	-95.14429
Palo_Alto__IA	9421	Iowa_US	United States	1474.829	43.075854	-94.667297
Plymouth__IA	24986	Iowa_US	United States	2237.059	42.737585	-96.215864
Pocahontas__IA	7310	Iowa_US	United States	1498.714	42.734033	-94.678279
Polk__IA	430640	Iowa_US	United States	1532.067	41.684281	-93.56972
Pottawattamie__IA	93158	Iowa_US	United States	2484.14	41.340184	-95.544905
Poweshiek__IA	18914	Iowa_US	United States	1517.907	41.684526	-92.522882
Ringgold__IA	5131	Iowa_US	United States	1395.655	40.735334	-94.244251
Sac__IA	10350	Iowa_US	United States	1497.87	42.387526	-95.105224
Scott__IA	165224	Iowa_US	United States	1212.66	41.641679	-90.62229
Shelby__IA	12167	Iowa_US	United States	1531.597	41.679014	-95.308917
Sioux__IA	33704	Iowa_US	United States	1991.677	43.082854	-96.177929
Story__IA	89542	Iowa_US	United States	1485.745	42.037538	-93.466093
Tama__IA	17767	Iowa_US	United States	1870.181	42.074848	-92.529412
Taylor__IA	6317	Iowa_US	United States	1384.752	40.737949	-94.697108
Union__IA	12534	Iowa_US	United States	1102.812	41.02855	-94.245091
Van_Buren__IA	7570	Iowa_US	United States	1270.438	40.754117	-91.952943
Wapello__IA	35625	Iowa_US	United States	1129.289	41.031263	-92.409482
Warren__IA	46225	Iowa_US	United States	1484.97	41.336769	-93.564366
Washington__IA	21704	Iowa_US	United States	1478.676	41.329401	-91.725052
Wayne__IA	6403	Iowa_US	United States	1365.316	40.739983	-93.332613
Webster__IA	38013	Iowa_US	United States	1860.721	42.434397	-94.179157
Winnebago__IA	10866	Iowa_US	United States	1040.444	43.378124	-93.743488
Winneshiek__IA	21056	Iowa_US	United States	1787.449	43.292989	-91.850788
Woodbury__IA	102172	Iowa_US	United States	2273.423	42.39322	-96.053296
Worth__IA	7598	Iowa_US	United States	1041.024	43.373491	-93.248533
Wright__IA	13229	Iowa_US	United States	1507.991	42.733007	-93.734735
Allen__KS	13371	Kansas_US	United States	1308.786	37.884229	-95.300945
Anderson__KS	8102	Kansas_US	United States	1511.863	38.215114	-95.292046
Atchison__KS	16924	Kansas_US	United States	1123.587	39.532544	-95.313398
Barber__KS	4861	Kansas_US	United States	2942.656	37.222906	-98.685052
Barton__KS	27674	Kansas_US	United States	2332.632	38.481239	-98.767837
Bourbon__KS	15173	Kansas_US	United States	1655.239	37.8561	-94.850928
Brown__KS	9984	Kansas_US	United States	1481.748	39.825931	-95.569905
Butler__KS	65880	Kansas_US	United States	3746.49	37.773681	-96.838762
Chase__KS	2790	Kansas_US	United States	2014.305	38.298553	-96.594064
Chautauqua__KS	3669	Kansas_US	United States	1669.937	37.154259	-96.245396
Cherokee__KS	21603	Kansas_US	United States	1530.742	37.169392	-94.845698
Cheyenne__KS	2726	Kansas_US	United States	2644.234	39.789256	-101.727302
Clark__KS	2215	Kansas_US	United States	2530.891	37.233831	-99.813869
Clay__KS	8535	Kansas_US	United States	1697.996	39.344964	-97.168853
Cloud__KS	9533	Kansas_US	United States	1859.586	39.487329	-97.64139
Coffey__KS	8601	Kansas_US	United States	1694.095	38.23645	-95.729137
Comanche__KS	1891	Kansas_US	United States	2045.286	37.189071	-99.254089
Cowley__KS	36311	Kansas_US	United States	2932.971	37.234507	-96.837247
Crawford__KS	39134	Kansas_US	United States	1541.073	37.505628	-94.853941
Decatur__KS	2961	Kansas_US	United States	2315.831	39.783542	-100.459708
Dickinson__KS	19754	Kansas_US	United States	2206.541	38.867735	-97.157943
Doniphan__KS	7945	Kansas_US	United States	1031.53	39.788502	-95.147225
Douglas__KS	110826	Kansas_US	United States	1229.303	38.896573	-95.290529
Edwards__KS	3037	Kansas_US	United States	1610.906	37.883595	-99.304746
Elk__KS	2882	Kansas_US	United States	1684.699	37.456026	-96.244642
Ellis__KS	28452	Kansas_US	United States	2331.96	38.914596	-99.317329
Ellsworth__KS	6497	Kansas_US	United States	1873.305	38.700845	-98.205355
Finney__KS	36776	Kansas_US	United States	3373.905	38.049855	-100.739929
Ford__KS	33848	Kansas_US	United States	2846.606	37.688365	-99.884734
Franklin__KS	25992	Kansas_US	United States	1494.776	38.558019	-95.278962
Geary__KS	34362	Kansas_US	United States	1047.612	39.002155	-96.768038
Gove__KS	2695	Kansas_US	United States	2775.844	38.917239	-100.48736
Graham__KS	2597	Kansas_US	United States	2327.76	39.349445	-99.880952
Grant__KS	7829	Kansas_US	United States	1489.617	37.547537	-101.299362
Gray__KS	6006	Kansas_US	United States	2251.47	37.744513	-100.451716
Greeley__KS	1247	Kansas_US	United States	2016.177	38.480408	-101.805984
Greenwood__KS	6689	Kansas_US	United States	2985.288	37.878659	-96.242232
Hamilton__KS	2690	Kansas_US	United States	2583.847	37.995244	-101.793689
Harper__KS	6034	Kansas_US	United States	2079.19	37.188184	-98.06659
Harvey__KS	34684	Kansas_US	United States	1400.465	38.050144	-97.436707
Haskell__KS	4256	Kansas_US	United States	1496.683	37.55855	-100.876869
Hodgeman__KS	1916	Kansas_US	United States	2228.196	38.087493	-99.898407
Jackson__KS	13462	Kansas_US	United States	1704.261	39.410989	-95.794509
Jefferson__KS	19126	Kansas_US	United States	1441.787	39.239644	-95.375314
Jewell__KS	3077	Kansas_US	United States	2368.182	39.77701	-98.222584
Johnson__KS	544179	Kansas_US	United States	1242.925	38.883907	-94.82233
Kearny__KS	3977	Kansas_US	United States	2255.831	37.994461	-101.308136
Kingman__KS	7858	Kansas_US	United States	2244.636	37.552951	-98.144529
Kiowa__KS	2553	Kansas_US	United States	1872.224	37.561231	-99.286539
Labette__KS	21607	Kansas_US	United States	1691.567	37.191468	-95.297473
Lane__KS	1750	Kansas_US	United States	1858.751	38.481286	-100.466185
Leavenworth__KS	76227	Kansas_US	United States	1214.632	39.189511	-95.038977
Lincoln__KS	3241	Kansas_US	United States	1865.975	39.047276	-98.214265
Linn__KS	9656	Kansas_US	United States	1570.556	38.216549	-94.844932
Logan__KS	2756	Kansas_US	United States	2779.317	38.91327	-101.157407
Lyon__KS	33690	Kansas_US	United States	2215.52	38.455498	-96.161589
McPherson__KS	29180	Kansas_US	United States	2332.55	38.395812	-97.647489
Marion__KS	12660	Kansas_US	United States	2470.15	38.359647	-97.102771
Marshall__KS	10117	Kansas_US	United States	2344.217	39.782709	-96.521243
Meade__KS	4575	Kansas_US	United States	2536.493	37.243886	-100.360094
Miami__KS	32787	Kansas_US	United States	1528.755	38.566772	-94.832963
Mitchell__KS	6373	Kansas_US	United States	1862.613	39.393026	-98.207362
Montgomery__KS	35471	Kansas_US	United States	1687.33	37.189537	-95.742403
Morris__KS	5923	Kansas_US	United States	1820.475	38.687696	-96.644905
Morton__KS	3233	Kansas_US	United States	1890.501	37.18525	-101.809516
Nemaha__KS	10178	Kansas_US	United States	1863.334	39.791043	-96.005381
Neosho__KS	16512	Kansas_US	United States	1496.481	37.564283	-95.315683
Ness__KS	3107	Kansas_US	United States	2784.258	38.480437	-99.908745
Norton__KS	5671	Kansas_US	United States	2282.552	39.783867	-99.899235
Osage__KS	16295	Kansas_US	United States	1864.391	38.649706	-95.727275
Osborne__KS	3858	Kansas_US	United States	2316.38	39.348649	-98.767876
Ottawa__KS	6091	Kansas_US	United States	1868.251	39.137963	-97.654803
Pawnee__KS	6973	Kansas_US	United States	1954.524	38.182873	-99.232154
Phillips__KS	5642	Kansas_US	United States	2316.904	39.784506	-99.34215
Pottawatomie__KS	21604	Kansas_US	United States	2232.339	39.382187	-96.337113
Pratt__KS	9656	Kansas_US	United States	1905.511	37.647594	-98.74012
Rawlins__KS	2519	Kansas_US	United States	2770.191	39.786198	-101.076738
Reno__KS	64511	Kansas_US	United States	3294.75	37.948185	-98.078346
Republic__KS	4980	Kansas_US	United States	1865.949	39.82891	-97.650921
Rice__KS	10083	Kansas_US	United States	1885.415	38.347178	-98.201415
Riley__KS	71115	Kansas_US	United States	1610.859	39.291211	-96.727489
Rooks__KS	5181	Kansas_US	United States	2318.432	39.346006	-99.324492
Rush__KS	3307	Kansas_US	United States	1859.542	38.523592	-99.309183
Russell__KS	6970	Kansas_US	United States	2329.529	38.916839	-98.765638
Saline__KS	55606	Kansas_US	United States	1868.183	38.786327	-97.650153
Scott__KS	4936	Kansas_US	United States	1858.736	38.481877	-100.90636
Sedgwick__KS	498365	Kansas_US	United States	2613.611	37.683807	-97.459451
Seward__KS	22952	Kansas_US	United States	1658.853	37.180585	-100.854741
Shawnee__KS	177934	Kansas_US	United States	1439.326	39.041805	-95.755664
Sheridan__KS	2556	Kansas_US	United States	2321.166	39.350543	-100.441206
Sherman__KS	6010	Kansas_US	United States	2735.748	39.351352	-101.719859
Smith__KS	3853	Kansas_US	United States	2323.128	39.78466	-98.78543
Stafford__KS	4437	Kansas_US	United States	2058.825	38.03563	-98.719889
Stanton__KS	2235	Kansas_US	United States	1762.266	37.565932	-101.789383
Stevens__KS	5724	Kansas_US	United States	1884.144	37.202356	-101.315796
Sumner__KS	24132	Kansas_US	United States	3069.019	37.236663	-97.493349
Thomas__KS	7900	Kansas_US	United States	2783.714	39.357706	-101.083439
Trego__KS	3001	Kansas_US	United States	2330.019	38.921302	-99.865423
Wabaunsee__KS	7053	Kansas_US	United States	2071.007	38.955154	-96.201262
Wallace__KS	1485	Kansas_US	United States	2366.489	38.926626	-101.771103
Washington__KS	5799	Kansas_US	United States	2327.546	39.776714	-97.095611
Wichita__KS	2234	Kansas_US	United States	1861.144	38.481922	-101.347434
Wilson__KS	9409	Kansas_US	United States	1489.434	37.558515	-95.745175
Woodson__KS	3309	Kansas_US	United States	1308.599	37.888484	-95.757553
Wyandotte__KS	157505	Kansas_US	United States	404.538	39.115384	-94.763087
Adair__KY	18656	Kentucky_US	United States	1068.109	37.105541	-85.281401
Allen__KY	19956	Kentucky_US	United States	911.323	36.75077	-86.192458
Anderson__KY	21421	Kentucky_US	United States	529.057	38.005396	-84.986417
Ballard__KY	8249	Kentucky_US	United States	708.853	37.05112	-89.009178
Barren__KY	42173	Kentucky_US	United States	1294.992	36.963614	-85.92499
Bath__KY	11591	Kentucky_US	United States	735.568	38.152249	-83.737641
Bell__KY	28691	Kentucky_US	United States	935.288	36.72268	-83.681046
Boone__KY	118811	Kentucky_US	United States	664.239	38.974595	-84.731444
Bourbon__KY	19985	Kentucky_US	United States	755.22	38.202562	-84.20986
Boyd__KY	49542	Kentucky_US	United States	419.635	38.360004	-82.681406
Boyle__KY	28432	Kentucky_US	United States	473.093	37.6182	-84.873016
Bracken__KY	8488	Kentucky_US	United States	541.17	38.678523	-84.100355
Breathitt__KY	13878	Kentucky_US	United States	1282.737	37.521178	-83.322401
Breckinridge__KY	20059	Kentucky_US	United States	1516.751	37.778109	-86.432829
Bullitt__KY	74319	Kentucky_US	United States	777.682	37.969572	-85.703036
Butler__KY	12690	Kentucky_US	United States	1117.511	37.207013	-86.682471
Caldwell__KY	12984	Kentucky_US	United States	901.707	37.148643	-87.87051
Calloway__KY	37191	Kentucky_US	United States	1063.699	36.620978	-88.274086
Campbell__KY	90336	Kentucky_US	United States	412.897	38.946981	-84.379583
Carlisle__KY	5104	Kentucky_US	United States	515.355	36.857726	-88.975757
Carroll__KY	10811	Kentucky_US	United States	355.644	38.668284	-85.124083
Carter__KY	27720	Kentucky_US	United States	1067.391	38.309555	-83.048821
Casey__KY	15955	Kentucky_US	United States	1154.451	37.321962	-84.92822
Christian__KY	73955	Kentucky_US	United States	1875.261	36.893388	-87.493554
Clark__KY	35613	Kentucky_US	United States	660.851	37.970133	-84.144974
Clay__KY	21730	Kentucky_US	United States	1220.108	37.164466	-83.710763
Clinton__KY	10272	Kentucky_US	United States	532.028	36.729124	-85.153499
Crittenden__KY	9315	Kentucky_US	United States	961.25	37.358149	-88.10501
Cumberland__KY	6856	Kentucky_US	United States	805.247	36.784227	-85.393499
Daviess__KY	96656	Kentucky_US	United States	1234.322	37.731671	-87.087139
Edmonson__KY	12161	Kentucky_US	United States	797.726	37.227856	-86.217778
Elliott__KY	7852	Kentucky_US	United States	609.484	38.116425	-83.097541
Estill__KY	14672	Kentucky_US	United States	662.027	37.69246	-83.963927
Fayette__KY	295803	Kentucky_US	United States	739.571	38.040157	-84.458443
Fleming__KY	14348	Kentucky_US	United States	909.905	38.368431	-83.706152
Floyd__KY	39451	Kentucky_US	United States	1024.872	37.558283	-82.740337
Franklin__KY	49285	Kentucky_US	United States	549.099	38.234919	-84.868786
Fulton__KY	6813	Kentucky_US	United States	597.299	36.55262	-89.187723
Gallatin__KY	8589	Kentucky_US	United States	271.218	38.760184	-84.862114
Garrard__KY	16912	Kentucky_US	United States	605.916	37.630162	-84.545856
Grant__KY	24662	Kentucky_US	United States	675.38	38.64921	-84.625946
Graves__KY	37121	Kentucky_US	United States	1442.074	36.723344	-88.649897
Grayson__KY	25746	Kentucky_US	United States	1323.563	37.458577	-86.344011
Green__KY	11258	Kentucky_US	United States	747.961	37.269637	-85.561403
Greenup__KY	36910	Kentucky_US	United States	918.02	38.563596	-82.933833
Hancock__KY	8565	Kentucky_US	United States	515.114	37.843389	-86.792773
Hardin__KY	105543	Kentucky_US	United States	1632.045	37.695836	-85.963183
Harlan__KY	29278	Kentucky_US	United States	1212.504	36.859223	-83.221497
Harrison__KY	18846	Kentucky_US	United States	802.538	38.443489	-84.332796
Hart__KY	18199	Kentucky_US	United States	1082.227	37.313856	-85.881995
Henderson__KY	46250	Kentucky_US	United States	1207.659	37.792542	-87.572577
Henry__KY	15416	Kentucky_US	United States	754.003	38.451561	-85.120079
Hickman__KY	4902	Kentucky_US	United States	655.37	36.675916	-88.97202
Hopkins__KY	46920	Kentucky_US	United States	1435.929	37.31107	-87.542196
Jackson__KY	13494	Kentucky_US	United States	897.463	37.40332	-84.020686
Jefferson__KY	741096	Kentucky_US	United States	1029.993	38.189533	-85.657624
Jessamine__KY	48586	Kentucky_US	United States	451.954	37.873291	-84.58396
Johnson__KY	23356	Kentucky_US	United States	684.107	37.84926	-82.830639
Kenton__KY	159720	Kentucky_US	United States	425.656	38.930477	-84.533492
Knott__KY	16346	Kentucky_US	United States	913.881	37.354703	-82.949138
Knox__KY	31883	Kentucky_US	United States	1004.263	36.887476	-83.85563
Larue__KY	14193	Kentucky_US	United States	682.794	37.545518	-85.697209
Laurel__KY	58849	Kentucky_US	United States	1149.164	37.113268	-84.119395
Lawrence__KY	15860	Kentucky_US	United States	1087.971	38.074459	-82.738305
Lee__KY	7887	Kentucky_US	United States	547.153	37.605383	-83.718497
Leslie__KY	11310	Kentucky_US	United States	1047.513	37.087846	-83.388616
Letcher__KY	24519	Kentucky_US	United States	878.091	37.118503	-82.861175
Lewis__KY	13870	Kentucky_US	United States	1283.033	38.532051	-83.373303
Lincoln__KY	24742	Kentucky_US	United States	871.727	37.457257	-84.658074
Livingston__KY	9519	Kentucky_US	United States	886.64	37.209517	-88.363426
Logan__KY	26835	Kentucky_US	United States	1442.703	36.859829	-86.881436
Lyon__KY	8314	Kentucky_US	United States	664.406	37.023976	-88.083391
McCracken__KY	65565	Kentucky_US	United States	694.558	37.053688	-88.712378
McCreary__KY	18306	Kentucky_US	United States	1116.147	36.731136	-84.491052
McLean__KY	9531	Kentucky_US	United States	663.641	37.530575	-87.262931
Madison__KY	82916	Kentucky_US	United States	1148.03	37.723528	-84.277008
Magoffin__KY	13333	Kentucky_US	United States	800.714	37.698954	-83.069716
Marion__KY	19820	Kentucky_US	United States	898.359	37.552247	-85.269242
Marshall__KY	31448	Kentucky_US	United States	881.038	36.882017	-88.332752
Martin__KY	12929	Kentucky_US	United States	597.248	37.796774	-82.506623
Mason__KY	17490	Kentucky_US	United States	638.206	38.594068	-83.828052
Meade__KY	28602	Kentucky_US	United States	840.458	37.967476	-86.200863
Menifee__KY	6306	Kentucky_US	United States	533.367	37.950715	-83.597345
Mercer__KY	21331	Kentucky_US	United States	656.074	37.812085	-84.879695
Metcalfe__KY	10099	Kentucky_US	United States	754.178	36.990394	-85.629554
Monroe__KY	10963	Kentucky_US	United States	860.023	36.714077	-85.713508
Montgomery__KY	26499	Kentucky_US	United States	515.037	38.038138	-83.912338
Morgan__KY	13923	Kentucky_US	United States	994.006	37.92294	-83.258944
Muhlenberg__KY	31499	Kentucky_US	United States	1241.641	37.213816	-87.134092
Nelson__KY	43437	Kentucky_US	United States	1098.352	37.803188	-85.465955
Nicholas__KY	7135	Kentucky_US	United States	509.796	38.337132	-84.025554
Ohio__KY	23842	Kentucky_US	United States	1544.221	37.477859	-86.844871
Oldham__KY	60316	Kentucky_US	United States	508.763	38.400046	-85.456059
Owen__KY	10841	Kentucky_US	United States	917.495	38.499603	-84.841509
Owsley__KY	4755	Kentucky_US	United States	513.569	37.423452	-83.691566
Pendleton__KY	14877	Kentucky_US	United States	730.164	38.690765	-84.354041
Perry__KY	28712	Kentucky_US	United States	887.354	37.241282	-83.217772
Pike__KY	65024	Kentucky_US	United States	2042.644	37.482067	-82.402869
Powell__KY	12613	Kentucky_US	United States	466.513	37.810379	-83.826985
Pulaski__KY	63063	Kentucky_US	United States	1753.821	37.108312	-84.579986
Robertson__KY	2282	Kentucky_US	United States	259.253	38.513826	-84.063757
Rockcastle__KY	17056	Kentucky_US	United States	823.865	37.36122	-84.314419
Rowan__KY	23333	Kentucky_US	United States	741.426	38.205894	-83.425969
Russell__KY	17565	Kentucky_US	United States	732.644	36.989127	-85.058976
Scott__KY	47173	Kentucky_US	United States	739.268	38.289882	-84.579376
Shelby__KY	42074	Kentucky_US	United States	998.885	38.239426	-85.22836
Simpson__KY	17327	Kentucky_US	United States	612.443	36.740863	-86.581464
Spencer__KY	17061	Kentucky_US	United States	496.391	38.026976	-85.321525
Taylor__KY	24512	Kentucky_US	United States	716.954	37.365106	-85.326698
Todd__KY	12460	Kentucky_US	United States	976.572	36.840338	-87.183642
Trigg__KY	14339	Kentucky_US	United States	1246.638	36.807681	-87.858652
Trimble__KY	8809	Kentucky_US	United States	404.6	38.618193	-85.355171
Union__KY	15007	Kentucky_US	United States	941.142	37.658029	-87.95165
Warren__KY	113792	Kentucky_US	United States	1418.185	36.995634	-86.423579
Washington__KY	11717	Kentucky_US	United States	780.108	37.754209	-85.175416
Wayne__KY	20813	Kentucky_US	United States	1253.972	36.802011	-84.83044
Webster__KY	13621	Kentucky_US	United States	869.343	37.520021	-87.685095
Whitley__KY	35637	Kentucky_US	United States	1152.851	36.758021	-84.14455
Wolfe__KY	7355	Kentucky_US	United States	576.925	37.743774	-83.495068
Woodford__KY	24939	Kentucky_US	United States	497.371	38.042789	-84.748147
Acadia__LA	61773	Louisiana_US	United States	1702.799	30.291497	-92.411037
Allen__LA	25764	Louisiana_US	United States	1983.811	30.652744	-92.819605
Ascension__LA	107215	Louisiana_US	United States	784.212	30.202946	-90.910023
Assumption__LA	23421	Louisiana_US	United States	944.13	29.899884	-91.050528
Avoyelles__LA	42073	Louisiana_US	United States	2242.268	31.085094	-91.993798
Beauregard__LA	35654	Louisiana_US	United States	3019.501	30.645018	-93.340253
Bienville__LA	14353	Louisiana_US	United States	2129.153	32.344268	-93.061513
Bossier__LA	116979	Louisiana_US	United States	2246.089	32.696202	-93.617977
Caddo__LA	254969	Louisiana_US	United States	2426.362	32.577195	-93.882423
Calcasieu__LA	192768	Louisiana_US	United States	2834.157	30.229559	-93.358015
Caldwell__LA	10132	Louisiana_US	United States	1400.481	32.101244	-92.11418
Cameron__LA	6839	Louisiana_US	United States	5015.95	29.871989	-93.165437
Catahoula__LA	10407	Louisiana_US	United States	1915.091	31.666517	-91.846703
Claiborne__LA	17195	Louisiana_US	United States	1987.599	32.827585	-92.991125
Concordia__LA	20822	Louisiana_US	United States	1935.502	31.469806	-91.626314
De_Soto__LA	26656	Louisiana_US	United States	2316.973	32.059248	-93.740797
East_Baton_Rouge__LA	440171	Louisiana_US	United States	1217.903	30.544002	-91.093174
East_Carroll__LA	7759	Louisiana_US	United States	1145.893	32.73017	-91.234141
East_Feliciana__LA	20267	Louisiana_US	United States	1180.459	30.839784	-91.043434
Evangeline__LA	33984	Louisiana_US	United States	1760.218	30.720693	-92.404086
Franklin__LA	20767	Louisiana_US	United States	1645.776	32.138279	-91.672101
Grant__LA	22309	Louisiana_US	United States	1721.444	31.597787	-92.561716
Iberia__LA	73240	Louisiana_US	United States	2669.056	29.606013	-91.842706
Iberville__LA	33387	Louisiana_US	United States	1690.895	30.288394	-91.36315
Jackson__LA	16274	Louisiana_US	United States	1502.911	32.30448	-92.556672
Jefferson__LA	432552	Louisiana_US	United States	1723.437	29.5033	-90.036231
Jefferson_Davis__LA	31594	Louisiana_US	United States	1705.65	30.269529	-92.816221
Lafayette__LA	221578	Louisiana_US	United States	697.247	30.206507	-92.06417
Lafourche__LA	96318	Louisiana_US	United States	3818.438	29.491993	-90.394849
La_Salle__LA	14890	Louisiana_US	United States	1715.591	31.680836	-92.161809
Lincoln__LA	46735	Louisiana_US	United States	1223.704	32.601148	-92.662082
Livingston__LA	128026	Louisiana_US	United States	1820.363	30.440419	-90.727474
Madison__LA	12093	Louisiana_US	United States	1685.822	32.365824	-91.240729
Morehouse__LA	27979	Louisiana_US	United States	2087.749	32.820008	-91.800399
Natchitoches__LA	39566	Louisiana_US	United States	3364.376	31.734982	-93.086106
Orleans__LA	343829	Louisiana_US	United States	907.044	30.068636	-89.939007
Ouachita__LA	153720	Louisiana_US	United States	1636.226	32.477495	-92.154798
Plaquemines__LA	23042	Louisiana_US	United States	6649.014	29.402337	-89.298489
Pointe_Coupee__LA	22802	Louisiana_US	United States	1529.938	30.708319	-91.604621
Rapides__LA	131613	Louisiana_US	United States	3526.676	31.193204	-92.535953
Red_River__LA	9091	Louisiana_US	United States	1042.066	32.101213	-93.34905
Richland__LA	20725	Louisiana_US	United States	1462.089	32.418121	-91.758375
Sabine__LA	24233	Louisiana_US	United States	2620.082	31.560209	-93.559228
St_Bernard__LA	35897	Louisiana_US	United States	5589.381	29.91811	-89.263494
St_Charles__LA	52780	Louisiana_US	United States	1063.524	29.913833	-90.359314
St_Helena__LA	11203	Louisiana_US	United States	1060.569	30.821423	-90.70935
St_James__LA	22102	Louisiana_US	United States	668.11	30.02482	-90.793956
St_John_the_Baptist__LA	45924	Louisiana_US	United States	900.376	30.117471	-90.504677
St_Landry__LA	83384	Louisiana_US	United States	2431.952	30.583441	-91.989275
St_Martin__LA	52160	Louisiana_US	United States	2114.699	30.121433	-91.611481
St_Mary__LA	54650	Louisiana_US	United States	2899.292	29.629349	-91.463804
St_Tammany__LA	233740	Louisiana_US	United States	2911.635	30.410022	-89.951962
Tangipahoa__LA	121097	Louisiana_US	United States	2132.255	30.621581	-90.406633
Tensas__LA	5252	Louisiana_US	United States	1660.676	32.001489	-91.342576
Terrebonne__LA	111860	Louisiana_US	United States	5392.543	29.333266	-90.844191
Union__LA	22721	Louisiana_US	United States	2344.984	32.829349	-92.37565
Vermilion__LA	57999	Louisiana_US	United States	3993.942	29.786872	-92.29009
Vernon__LA	52334	Louisiana_US	United States	3474.43	31.110563	-93.18152
Washington__LA	47168	Louisiana_US	United States	1750.533	30.852144	-90.046253
Webster__LA	41207	Louisiana_US	United States	1592.428	32.732152	-93.339825
West_Baton_Rouge__LA	23788	Louisiana_US	United States	527.901	30.464052	-91.309808
West_Carroll__LA	11604	Louisiana_US	United States	933.865	32.79248	-91.451998
West_Feliciana__LA	15625	Louisiana_US	United States	1103.342	30.872701	-91.421008
Winn__LA	15313	Louisiana_US	United States	2478.16	31.941187	-92.641269
Androscoggin__ME	107702	Maine_US	United States	1287.537	44.167681	-70.207435
Aroostook__ME	71870	Maine_US	United States	17683.319	46.727057	-68.64941
Cumberland__ME	281674	Maine_US	United States	3153.213	43.808348	-70.330375
Franklin__ME	30768	Maine_US	United States	4515.589	44.973012	-70.444727
Hancock__ME	54418	Maine_US	United States	6073.355	44.564906	-68.370703
Kennebec__ME	122151	Maine_US	United States	2463.531	44.417012	-69.765764
Knox__ME	39736	Maine_US	United States	2962.806	44.042045	-69.038515
Lincoln__ME	34457	Maine_US	United States	1811.964	43.994265	-69.514029
Oxford__ME	57833	Maine_US	United States	5635.078	44.494585	-70.734688
Penobscot__ME	153923	Maine_US	United States	9212.796	45.390602	-68.657487
Piscataquis__ME	17535	Maine_US	United States	11338.881	45.917678	-69.104548
Sagadahoc__ME	35293	Maine_US	United States	958.399	43.916694	-69.843994
Somerset__ME	52228	Maine_US	United States	10602.195	45.507482	-69.97604
Waldo__ME	38786	Maine_US	United States	2208.629	44.505361	-69.139678
Washington__ME	32856	Maine_US	United States	8437.277	44.967009	-67.609354
York__ME	197131	Maine_US	United States	3288.544	43.427239	-70.670402
Allegany__MD	75087	Maryland_US	United States	1113.518	39.612309	-78.703108
Anne_Arundel__MD	537656	Maryland_US	United States	1522.396	38.993374	-76.560511
Baltimore_County__MD	805029	Maryland_US	United States	1765.739	39.443167	-76.616569
Calvert__MD	88737	Maryland_US	United States	893.731	38.521358	-76.525864
Caroline__MD	33066	Maryland_US	United States	844.082	38.871531	-75.831631
Carroll__MD	167134	Maryland_US	United States	1172.455	39.563189	-77.015512
Cecil__MD	101108	Maryland_US	United States	1082.194	39.562352	-75.941584
Charles__MD	146551	Maryland_US	United States	1665.28	38.472853	-77.015427
Dorchester__MD	32618	Maryland_US	United States	2545.969	38.429196	-76.047433
Frederick__MD	233385	Maryland_US	United States	1728.502	39.470427	-77.397627
Garrett__MD	30097	Maryland_US	United States	1698.352	39.529871	-79.269416
Harford__MD	244826	Maryland_US	United States	1363.999	39.537429	-76.299789
Howard__MD	287085	Maryland_US	United States	656.288	39.252264	-76.924406
Kent__MD	20197	Maryland_US	United States	1070.819	39.239177	-76.1242
Montgomery__MD	971777	Maryland_US	United States	1312.989	39.137382	-77.203063
Prince_George_s__MD	863420	Maryland_US	United States	1291.98	38.82588	-76.847272
Queen_Anne_s__MD	47798	Maryland_US	United States	1322.686	39.040693	-76.082405
St_Mary_s__MD	105151	Maryland_US	United States	1979.402	38.222666	-76.534271
Somerset__MD	26470	Maryland_US	United States	1580.805	38.07445	-75.853323
Talbot__MD	37782	Maryland_US	United States	1234.92	38.749427	-76.17913
Washington__MD	147430	Maryland_US	United States	1210.413	39.603621	-77.814671
Wicomico__MD	98733	Maryland_US	United States	1036.613	38.367389	-75.632206
Worcester__MD	51454	Maryland_US	United States	1799.676	38.222133	-75.309932
Baltimore_City__MD	620961	Maryland_US	United States	238.412	39.300214	-76.610516
Barnstable__MA	215888	Massachusetts_US	United States	3381.326	41.798819	-70.211083
Berkshire__MA	131219	Massachusetts_US	United States	2451.238	42.375314	-73.213948
Bristol__MA	548285	Massachusetts_US	United States	1790.265	41.748576	-71.087062
Dukes__MA	16535	Massachusetts_US	United States	1271.584	41.380939	-70.701536
Essex__MA	743159	Massachusetts_US	United States	2145.737	42.642711	-70.865107
Franklin__MA	71372	Massachusetts_US	United States	1876.64	42.583791	-72.591655
Hampden__MA	463490	Massachusetts_US	United States	1642.703	42.136198	-72.635648
Hampshire__MA	158080	Massachusetts_US	United States	1412.086	42.339459	-72.663694
Middlesex__MA	1503085	Massachusetts_US	United States	2193.875	42.479477	-71.396507
Nantucket__MA	10172	Massachusetts_US	United States	786.464	41.305878	-70.14191
Norfolk__MA	670850	Massachusetts_US	United States	1150.853	42.169703	-71.179875
Plymouth__MA	494919	Massachusetts_US	United States	2831.511	41.987196	-70.741942
Suffolk__MA	722023	Massachusetts_US	United States	311.368	42.33196	-71.020173
Worcester__MA	798552	Massachusetts_US	United States	4090.094	42.311693	-71.940282
Alcona__MI	10942	Michigan_US	United States	4637.588	44.682535	-82.83408
Alger__MI	9601	Michigan_US	United States	13073.574	47.080077	-86.564108
Allegan__MI	111408	Michigan_US	United States	4748.195	42.595788	-86.634745
Alpena__MI	29598	Michigan_US	United States	4389.828	44.894954	-83.426574
Antrim__MI	23580	Michigan_US	United States	1558.577	45.005457	-85.175625
Arenac__MI	15899	Michigan_US	United States	1762.98	44.03687	-83.740675
Baraga__MI	8860	Michigan_US	United States	2768.104	46.696068	-88.356022
Barry__MI	59173	Michigan_US	United States	1494.53	42.582811	-85.31455
Bay__MI	107771	Michigan_US	United States	1633.55	43.699711	-83.978701
Benzie__MI	17525	Michigan_US	United States	2226.269	44.648621	-86.494317
Berrien__MI	156813	Michigan_US	United States	4095.993	41.792639	-86.741822
Branch__MI	45248	Michigan_US	United States	1345.954	41.918585	-85.066523
Calhoun__MI	136146	Michigan_US	United States	1860.526	42.24299	-85.012385
Cass__MI	52293	Michigan_US	United States	1316.535	41.91624	-85.999457
Charlevoix__MI	25949	Michigan_US	United States	3601.285	45.513164	-85.450392
Cheboygan__MI	26152	Michigan_US	United States	2293.131	45.47612	-84.495271
Chippewa__MI	38520	Michigan_US	United States	6988.799	46.321819	-84.52063
Clare__MI	30926	Michigan_US	United States	1490.122	43.991137	-84.838325
Clinton__MI	75382	Michigan_US	United States	1488.098	42.950455	-84.591695
Crawford__MI	14074	Michigan_US	United States	1458.79	44.680208	-84.611132
Delta__MI	37069	Michigan_US	United States	5157.506	45.805101	-86.901373
Dickinson__MI	26168	Michigan_US	United States	2012.551	46.012823	-87.866119
Eaton__MI	107759	Michigan_US	United States	1500.724	42.589614	-84.846524
Emmet__MI	32694	Michigan_US	United States	2284.362	45.590094	-84.986822
Genesee__MI	425790	Michigan_US	United States	1682.423	43.021077	-83.706372
Gladwin__MI	25692	Michigan_US	United States	1336.252	43.98975	-84.389816
Gogebic__MI	16427	Michigan_US	United States	3823.712	46.488054	-89.788314
Grand_Treverse__MI	86986	Michigan_US	United States	1557.398	44.718688	-85.553848
Gratiot__MI	42476	Michigan_US	United States	1480.465	43.292326	-84.60469
Hillsdale__MI	46688	Michigan_US	United States	1572.139	41.864475	-84.642409
Houghton__MI	36628	Michigan_US	United States	3888.869	46.998305	-88.652066
Huron__MI	33118	Michigan_US	United States	5534.294	43.907616	-82.857045
Ingham__MI	280895	Michigan_US	United States	1452.238	42.603534	-84.373811
Ionia__MI	63905	Michigan_US	United States	1502.313	42.94465	-85.073766
Iosco__MI	25887	Michigan_US	United States	4895.226	44.329482	-82.849447
Iron__MI	11817	Michigan_US	United States	3137.019	46.170249	-88.540409
Isabella__MI	70311	Michigan_US	United States	1496.186	43.645233	-84.839425
Jackson__MI	160248	Michigan_US	United States	1873.846	42.248474	-84.420868
Kalamazoo__MI	250331	Michigan_US	United States	1502.963	42.246266	-85.532854
Kalkaska__MI	17153	Michigan_US	United States	1478.122	44.678881	-85.088992
Kent__MI	602622	Michigan_US	United States	2258.324	43.032497	-85.547446
Keweenaw__MI	2156	Michigan_US	United States	15452.359	47.681981	-88.148802
Lake__MI	11539	Michigan_US	United States	1487.378	43.995187	-85.8114
Lapeer__MI	88319	Michigan_US	United States	1716.76	43.088633	-83.224325
Leelanau__MI	21708	Michigan_US	United States	6558.347	45.146182	-86.051574
Lenawee__MI	99892	Michigan_US	United States	1972.039	41.895915	-84.066853
Livingston__MI	180967	Michigan_US	United States	1516.189	42.602532	-83.911718
Luce__MI	6631	Michigan_US	United States	4953.321	46.940602	-85.582368
Mackinac__MI	11113	Michigan_US	United States	5440.643	46.167981	-85.303756
Macomb__MI	840978	Michigan_US	United States	1478.496	42.671467	-82.910869
Manistee__MI	24733	Michigan_US	United States	3316.645	44.350385	-86.602967
Marquette__MI	67077	Michigan_US	United States	8869.517	46.656597	-87.584028
Mason__MI	28705	Michigan_US	United States	3217.909	43.996636	-86.750814
Mecosta__MI	42798	Michigan_US	United States	1479.386	43.635295	-85.332751
Menominee__MI	24029	Michigan_US	United States	3465.953	45.544174	-87.509892
Midland__MI	83629	Michigan_US	United States	1367.69	43.648378	-84.37922
Missaukee__MI	14849	Michigan_US	United States	1486.211	44.325424	-85.085471
Monroe__MI	152021	Michigan_US	United States	1761.241	41.916097	-83.487106
Montcalm__MI	63342	Michigan_US	United States	1866.933	43.312782	-85.149468
Montmorency__MI	9765	Michigan_US	United States	1457.263	45.024134	-84.130107
Muskegon__MI	172188	Michigan_US	United States	3781.446	43.289258	-86.751892
Newaygo__MI	48460	Michigan_US	United States	2231.764	43.562709	-85.791423
Oakland__MI	1202362	Michigan_US	United States	2349.881	42.660452	-83.38421
Oceana__MI	26570	Michigan_US	United States	3382.394	43.647255	-86.807575
Ogemaw__MI	21699	Michigan_US	United States	1489.119	44.33328	-84.128073
Ontonagon__MI	6780	Michigan_US	United States	9688.676	47.216604	-89.500461
Osceola__MI	23528	Michigan_US	United States	1484.313	43.997552	-85.322283
Oscoda__MI	8640	Michigan_US	United States	1480.39	44.685121	-84.124894
Otsego__MI	24164	Michigan_US	United States	1362.824	45.021794	-84.576597
Ottawa__MI	263801	Michigan_US	United States	4225.331	42.942346	-86.655342
Presque_Isle__MI	13376	Michigan_US	United States	6663.408	45.489515	-83.384019
Roscommon__MI	24449	Michigan_US	United States	1502.274	44.339517	-84.611272
Saginaw__MI	200169	Michigan_US	United States	2113.341	43.328267	-84.05541
St_Clair__MI	163040	Michigan_US	United States	2166.542	42.928804	-82.668914
St_Joseph__MI	61295	Michigan_US	United States	1349.467	41.911488	-85.52287
Sanilac__MI	43114	Michigan_US	United States	4117.93	43.449155	-82.642815
Schoolcraft__MI	8485	Michigan_US	United States	4879.485	46.020758	-86.199352
Shiawassee__MI	70648	Michigan_US	United States	1401.047	42.951545	-84.146352
Tuscola__MI	55729	Michigan_US	United States	2367.018	43.487902	-83.436618
Van_Buren__MI	76258	Michigan_US	United States	2822.821	42.283986	-86.305697
Washtenaw__MI	344791	Michigan_US	United States	1871.057	42.252327	-83.844634
Wayne__MI	1820584	Michigan_US	United States	1742.227	42.284664	-83.261953
Wexford__MI	32735	Michigan_US	United States	1490.449	44.331375	-85.570046
Aitkin__MN	16202	Minnesota_US	United States	5167.784	46.602446	-93.41976
Anoka__MN	330844	Minnesota_US	United States	1155.421	45.27411	-93.242723
Becker__MN	32504	Minnesota_US	United States	3743.007	46.937629	-95.741757
Beltrami__MN	44442	Minnesota_US	United States	7914.371	47.878825	-94.986698
Benton__MN	38451	Minnesota_US	United States	1069.815	45.701227	-94.00144
Big_Stone__MN	5269	Minnesota_US	United States	1367.818	45.419925	-96.402226
Blue_Earth__MN	64013	Minnesota_US	United States	1982.876	44.038225	-94.064071
Brown__MN	25893	Minnesota_US	United States	1601.815	44.246542	-94.733647
Carlton__MN	35386	Minnesota_US	United States	2266.973	46.603818	-92.671044
Carver__MN	91042	Minnesota_US	United States	974.127	44.821381	-93.800575
Cass__MN	28567	Minnesota_US	United States	6252.51	46.951427	-94.333773
Chippewa__MN	12441	Minnesota_US	United States	1522.333	45.028625	-95.564108
Chisago__MN	53887	Minnesota_US	United States	1145.834	45.505444	-92.903849
Clay__MN	58999	Minnesota_US	United States	2726.346	46.898377	-96.494901
Clearwater__MN	8695	Minnesota_US	United States	2667.004	47.575873	-95.371117
Cook__MN	5176	Minnesota_US	United States	8649.394	47.538571	-90.29019
Cottonwood__MN	11687	Minnesota_US	United States	1679.765	44.010711	-95.18313
Crow_Wing__MN	62500	Minnesota_US	United States	2995.391	46.491114	-94.071213
Dakota__MN	398552	Minnesota_US	United States	1519.978	44.670893	-93.062481
Dodge__MN	20087	Minnesota_US	United States	1138.52	44.020706	-92.869353
Douglas__MN	36009	Minnesota_US	United States	1864.804	45.936429	-95.46061
Faribault__MN	14553	Minnesota_US	United States	1869.724	43.676522	-93.947234
Fillmore__MN	20866	Minnesota_US	United States	2232.802	43.67727	-92.093681
Freeborn__MN	31255	Minnesota_US	United States	1871.062	43.674202	-93.350289
Goodhue__MN	46183	Minnesota_US	United States	2021.226	44.406178	-92.716
Grant__MN	6018	Minnesota_US	United States	1490.493	45.930743	-96.010699
Hennepin__MN	1152425	Minnesota_US	United States	1570.949	45.006064	-93.475185
Houston__MN	19027	Minnesota_US	United States	1473.281	43.66699	-91.501556
Hubbard__MN	20428	Minnesota_US	United States	2588.847	47.095551	-94.91329
Isanti__MN	37816	Minnesota_US	United States	1169.785	45.562431	-93.296339
Itasca__MN	45058	Minnesota_US	United States	7583.388	47.490843	-93.613128
Jackson__MN	10266	Minnesota_US	United States	1862.81	43.673025	-95.149704
Kanabec__MN	16239	Minnesota_US	United States	1382.232	45.94776	-93.297788
Kandiyohi__MN	42239	Minnesota_US	United States	2233.481	45.152714	-95.004981
Kittson__MN	4552	Minnesota_US	United States	2858.32	48.77604	-96.780349
Koochiching__MN	13311	Minnesota_US	United States	8168.879	48.24549	-93.782842
Lac_qui_Parle__MN	7259	Minnesota_US	United States	2015.038	44.999855	-96.176836
Lake__MN	10866	Minnesota_US	United States	7745.695	47.517111	-91.411704
Lake_of_the_Woods__MN	4045	Minnesota_US	United States	4596.362	48.7681	-94.904634
Le_Sueur__MN	27703	Minnesota_US	United States	1227.155	44.373397	-93.73018
Lincoln__MN	5896	Minnesota_US	United States	1420.433	44.408238	-96.272032
Lyon__MN	25857	Minnesota_US	United States	1869.11	44.409195	-95.847268
McLeod__MN	36651	Minnesota_US	United States	1309.311	44.821644	-94.27232
Mahnomen__MN	5413	Minnesota_US	United States	1509.734	47.325842	-95.810703
Marshall__MN	9439	Minnesota_US	United States	4695.405	48.362728	-96.357761
Martin__MN	20840	Minnesota_US	United States	1889.593	43.677118	-94.537198
Meeker__MN	23300	Minnesota_US	United States	1669.96	45.123156	-94.527346
Mille_Lacs__MN	26097	Minnesota_US	United States	1765.287	45.929043	-93.632996
Morrison__MN	33198	Minnesota_US	United States	2987.26	46.020484	-94.266619
Mower__MN	39163	Minnesota_US	United States	1842.95	43.666249	-92.759514
Murray__MN	8725	Minnesota_US	United States	1863.502	44.015594	-95.761581
Nicollet__MN	32727	Minnesota_US	United States	1208.857	44.35882	-94.245685
Nobles__MN	21378	Minnesota_US	United States	1871.415	43.677686	-95.763132
